id;name;latitude;longitude;country;population
0;Sant Julià de Lòria;42.46372;1.49129;AD;8022
1;Ordino;42.55623;1.53319;AD;3066
2;les Escaldes;42.50729;1.53414;AD;15853
3;la Massana;42.54499;1.51483;AD;7211
4;Encamp;42.53474;1.58014;AD;11223
5;Canillo;42.5676;1.59756;AD;3292
6;Andorra la Vella;42.50779;1.52109;AD;20430
7;Umm Al Quwain City;25.56473;55.55517;AE;62747
8;Ras Al Khaimah City;25.78953;55.9432;AE;351943
9;Muzayri‘;23.14355;53.7881;AE;10000
10;Zayed City;23.65416;53.70522;AE;63482
11;Khawr Fakkān;25.33132;56.34199;AE;40677
12;Dubai;25.0657;55.17128;AE;2956587
13;Dibba Al-Fujairah;25.59246;56.26176;AE;30000
14;Dibba Al-Hisn;25.61955;56.27291;AE;26395
15;Sharjah;25.33737;55.41206;AE;1324473
16;Ar Ruways;24.11028;52.73056;AE;16000
17;Al Fujairah City;25.11641;56.34141;AE;86512
18;Al Ain City;24.19167;55.76056;AE;55091
19;Ajman City;25.40177;55.47878;AE;490035
20;Adh Dhayd;25.28812;55.88157;AE;24716
21;Abu Dhabi;24.46667;54.36667;AE;603492
22;Khalifah A City;24.42588;54.605;AE;85374
23;Bani Yas City;24.30978;54.62944;AE;80498
24;Musaffah;24.35893;54.48267;AE;243341
25;Al Shamkhah City;24.39268;54.70779;AE;61710
26;Reef Al Fujairah City;25.14479;56.24764;AE;82310
27;Abu Dhabi Island and Internal Islands City;24.4511;54.3969;AE;552215
28;Kuhsān;34.65389;61.19778;AF;12087
29;Tukzār;35.94831;66.42132;AF;12021
30;Zindah Jān;34.34264;61.74675;AF;10104
31;Zarghūn Shahr;32.84734;68.44573;AF;13737
32;Zaṟah Sharan;33.14641;68.79213;AF;7366
33;Zaranj;30.95962;61.86037;AF;49851
34;Yangī Qal‘ah;37.46572;69.61131;AF;6541
35;Tīr Pul;34.59431;61.26895;AF;6979
36;Tarinkot;32.62998;65.87806;AF;10000
37;Taloqan;36.73605;69.53451;AF;64256
38;Tagāw-Bāy;35.69941;66.06164;AF;9096
39;Tagāb;34.85501;69.64917;AF;6400
40;Shīnḏanḏ;33.30294;62.1474;AF;29264
41;Shibirghān;36.66757;65.7529;AF;55641
42;Shahrak;34.10737;64.3052;AF;15967
43;Sidqābād;35.02298;69.35112;AF;7407
44;Sar-e Pul;36.21544;65.93249;AF;52121
45;Sangīn;32.07275;64.8359;AF;13579
46;Sang-e Chārak;35.84972;66.43694;AF;15377
47;Aībak;36.26468;68.01551;AF;47823
48;Rūdbār;30.15;62.6;AF;11034
49;Rustāq;37.12604;69.83045;AF;25636
50;Qarqīn;37.41853;66.04358;AF;15018
51;Qarchī Gak;37.03999;66.78891;AF;8942
52;Qarāwul;37.21959;68.7802;AF;24544
53;Qarah Bāgh;34.94023;61.77589;AF;12412
54;Qala i Naw;34.98735;63.12891;AF;9000
55;Qal‘ah-ye Shahr;35.54729;65.5676;AF;7756
56;Qalāt;32.10575;66.90833;AF;12191
57;Pārūn;35.42064;70.92261;AF;1000
58;Pul-e Khumrī;35.94458;68.71512;AF;56369
59;Pul-e ‘Alam;33.99529;69.02274;AF;13247
60;Panjāb;34.38795;67.02327;AF;13471
61;Paghmān;34.58787;68.95091;AF;49157
62;Uruzgān;32.92775;66.63253;AF;13388
63;Nīlī;33.72178;66.13023;AF;0
64;Nahrīn;36.0649;69.13343;AF;22363
65;Mīr Bachah Kōṯ;34.74999;69.11899;AF;5405
66;Mīrābād;30.43624;61.8383;AF;14160
67;Maymana;35.92139;64.78361;AF;75900
68;Mehtar Lām;34.67139;70.20944;AF;17345
69;Mazār-e Sharīf;36.70904;67.11087;AF;303282
70;Lashkar Gāh;31.59382;64.37161;AF;43934
71;Larkird;35.48936;66.66409;AF;11635
72;Kushk;33.29565;61.95221;AF;16952
73;Kunduz;36.72895;68.857;AF;161902
74;Khōst;33.33951;69.92041;AF;96123
75;Khulm;36.69736;67.69826;AF;64933
76;Khāsh;31.52919;62.79055;AF;15133
77;Khandūd;36.95127;72.318;AF;5521
78;Khanabad;36.6825;69.11556;AF;71531
79;Karukh;34.48108;62.5863;AF;17484
80;Kandahār;31.61332;65.71013;AF;391190
81;Kabul;34.52813;69.17233;AF;3043532
82;Jurm;36.86477;70.83421;AF;12106
83;Jalālābād;34.42647;70.45153;AF;200331
84;Jabal os Saraj;35.11833;69.23778;AF;15032
85;Herāt;34.34817;62.19967;AF;272806
86;Ghormach;35.73062;63.78264;AF;30000
87;Ghazni;33.55391;68.42096;AF;141000
88;Gereshk;31.82089;64.57005;AF;43588
89;Gardez;33.59744;69.22592;AF;103601
90;Fayzabad;37.11664;70.58002;AF;44421
91;Farkhār;36.57288;69.85783;AF;10480
92;Farah;32.37451;62.11638;AF;43561
93;Kafir Qala;34.66667;61.06667;AF;18086
94;Imām Şāḩib;37.18897;68.93644;AF;9659
95;Dasht-e Archī;37.13333;69.16667;AF;8263
96;Darzāb;35.97744;65.37828;AF;9642
97;Markaz-e Ḩukūmat-e Darwēshān;31.13231;64.1934;AF;9012
98;Chīras;35.41674;65.98234;AF;12779
99;Charikar;35.01361;69.17139;AF;53676
100;Chahār Burj;34.24475;62.19165;AF;11935
101;Fayrōz Kōh;34.51952;65.25093;AF;15000
102;Bāsawul;34.24749;70.87218;AF;6835
103;Baraki Barak;33.96744;68.9492;AF;22305
104;Bāmyān;34.82156;67.82734;AF;61863
105;Balkh;36.75635;66.8972;AF;114883
106;Baghlān;36.13068;68.70829;AF;108449
107;Ḩukūmatī Azrah;34.17355;69.64573;AF;12526
108;Ārt Khwājah;37.08571;69.47958;AF;18623
109;Āsmār;35.03333;71.35809;AF;15708
110;Ashkāsham;36.68333;71.53333;AF;12120
111;Asadābād;34.87311;71.14697;AF;48400
112;Andkhōy;36.95293;65.12376;AF;29208
113;Anār Darah;32.7587;61.65397;AF;10023
114;‘Alāqahdārī Dīshū;30.43206;63.29802;AF;9196
115;Bāzārak;35.31292;69.51519;AF;65000
116;Maydanshakhr;34.39561;68.86618;AF;1600
117;Markaz-e Woluswalī-ye Āchīn;34.12583;70.70778;AF;15098
118;Sharan;33.17568;68.73045;AF;2200
119;Saint John’s;17.12096;-61.84329;AG;24226
120;Piggotts;17.11667;-61.8;AG;1878
121;Parham;17.09682;-61.77046;AG;969
122;Falmouth;17.02741;-61.78136;AG;619
123;Codrington;17.63333;-61.83333;AG;1325
124;Bolands;17.06565;-61.87466;AG;1657
125;West End Village;18.17191;-63.14941;AI;0
126;The Valley;18.21704;-63.05783;AI;2035
127;The Quarter;18.20799;-63.04178;AI;0
128;Farrington;18.215;-63.02238;AI;0
129;Stoney Ground;18.22026;-63.04607;AI;0
130;South Hill Village;18.19201;-63.08779;AI;0
131;Sandy Ground Village;18.20118;-63.08998;AI;274
132;North Side;18.22919;-63.04401;AI;0
133;North Hill Village;18.20542;-63.07847;AI;0
134;Island Harbour;18.25601;-63.0102;AI;0
135;George Hill;18.19939;-63.0665;AI;0
136;East End Village;18.23333;-63.0;AI;0
137;Blowing Point Village;18.17648;-63.09375;AI;942
138;Sandy Hill;18.22104;-63.01329;AI;0
139;Sarandë;39.87534;20.00477;AL;15147
140;Tepelenë;40.29583;20.01917;AL;11955
141;Poliçan;40.61222;20.09806;AL;10663
142;Pogradec;40.9025;20.6525;AL;61530
143;Peshkopi;41.685;20.42889;AL;14848
144;Përmet;40.23361;20.35167;AL;10686
145;Kukës;42.07694;20.42194;AL;17832
146;Korçë;40.61861;20.78083;AL;58259
147;Gramsh;40.86972;20.18444;AL;11556
148;Gjirokastër;40.07583;20.13889;AL;23437
149;Ersekë;40.33778;20.67889;AL;7890
150;Elbasan;41.1125;20.08222;AL;100903
151;Çorovodë;40.50417;20.22722;AL;14046
152;Burrel;41.61028;20.00889;AL;15405
153;Bulqizë;41.49167;20.22194;AL;11212
154;Bilisht;40.6275;20.99;AL;7114
155;Librazhd-Qendër;41.19694;20.33556;AL;12691
156;Vlorë;40.4686;19.48318;AL;89546
157;Tirana;41.3275;19.81889;AL;374801
158;Shkodër;42.06828;19.51258;AL;88245
159;Shijak;41.34556;19.56722;AL;14138
160;Selenicë;40.53056;19.63583;AL;6912
161;Rrogozhinë;41.07639;19.66528;AL;5620
162;Rrëshen;41.7675;19.87556;AL;10064
163;Roskovec;40.7375;19.70222;AL;6657
164;Pukë;42.04444;19.89972;AL;6495
165;Peqin;41.04611;19.75111;AL;7513
166;Patos Fshat;40.64278;19.65083;AL;22679
167;Patos;40.68333;19.61944;AL;60000
168;Mamurras;41.5775;19.69222;AL;8282
169;Lushnjë;40.94194;19.705;AL;41469
170;Lezhë;41.78361;19.64361;AL;18695
171;Laç;41.63556;19.71306;AL;24825
172;Kuçovë;40.80028;19.91667;AL;18166
173;Krujë;41.50917;19.79278;AL;21286
174;Kavajë;41.18556;19.55694;AL;29354
175;Kamëz;41.38167;19.76028;AL;11026
176;Fushë-Krujë;41.47833;19.71778;AL;10458
177;Fier-Çifçi;40.71667;19.56667;AL;60995
178;Fier;40.72389;19.55611;AL;56297
179;Durrës;41.32355;19.45469;AL;122034
180;Cërrik;41.03167;19.97583;AL;14269
181;Berat;40.70583;19.95222;AL;46866
182;Ballsh;40.59889;19.73472;AL;10361
183;Yeghegnadzor;39.76389;45.33239;AM;8200
184;Vedi;39.91388;44.7251;AM;12192
185;Vayk’;39.6889;45.46668;AM;5419
186;Kapan;39.20755;46.40576;AM;33160
187;Goris;39.51111;46.34168;AM;20379
188;Hats’avan;39.46405;45.97047;AM;15208
189;Artashat;39.96144;44.54447;AM;20562
190;Ararat;39.83069;44.70569;AM;28832
191;Yerevan;40.18111;44.51361;AM;1093485
192;Vagharshapat;40.16557;44.29462;AM;46540
193;Yeghvard;40.32507;44.48608;AM;10705
194;Vardenis;40.18329;45.73053;AM;11382
195;Vardenik;40.13348;45.44311;AM;7709
196;Tashir;41.12072;44.28462;AM;7318
197;Step’anavan;41.00995;44.38531;AM;23782
198;Spitak;40.83221;44.26731;AM;15059
199;Sevan;40.5473;44.94171;AM;17083
200;Sarukhan;40.29169;45.13068;AM;6173
201;Sardarapat;40.13206;44.00969;AM;5348
202;Noyemberyan;41.17244;44.99917;AM;5119
203;Noratus;40.37793;45.18048;AM;5426
204;Nerk’in Getashen;40.14172;45.27087;AM;7010
205;Metsamor;40.07233;44.29169;AM;8789
206;Masis;40.06542;44.41618;AM;18911
207;Martuni;40.13892;45.30548;AM;11037
208;Vanadzor;40.80456;44.4939;AM;101098
209;Karanlukh;40.10444;45.28972;AM;5104
210;Gavarr;40.35398;45.12386;AM;21680
211;Ijevan;40.87877;45.14851;AM;14737
212;Hrazdan;40.49748;44.7662;AM;40795
213;Armavir;40.15446;44.03815;AM;25963
214;Gyumri;40.7942;43.84528;AM;148381
215;Garrni;40.11931;44.73442;AM;6827
216;Dilijan;40.7417;44.8501;AM;13478
217;Chambarak;40.59655;45.35498;AM;6153
218;Byureghavan;40.31417;44.59333;AM;6972
219;Berd;40.88135;45.38901;AM;8374
220;Ashtarak;40.2991;44.36204;AM;18779
221;Aparan;40.59323;44.3589;AM;5670
222;Alaverdi;41.09766;44.67316;AM;13184
223;Akhuryan;40.78003;43.90027;AM;7672
224;Abovyan;40.27368;44.63348;AM;35673
225;Saurimo;-9.66078;20.39155;AO;40498
226;Lucapa;-8.41915;20.74466;AO;20115
227;Luau;-10.70727;22.22466;AO;18465
228;Léua;-11.65;20.45;AO;5168
229;Uíge;-7.60874;15.06131;AO;60008
230;Soio;-6.1349;12.36894;AO;67491
231;N'zeto;-7.23116;12.8666;AO;18352
232;N’dalatando;-9.29782;14.91162;AO;383100
233;Mbanza Congo;-6.26703;14.2401;AO;24220
234;Malanje;-9.54015;16.34096;AO;87046
235;Luanda;-8.83682;13.23432;AO;2776168
236;Caxito;-8.57848;13.66425;AO;28224
237;Camabatela;-8.18812;15.37495;AO;12837
238;Cabinda;-5.55;12.2;AO;66020
239;Uacu Cungo;-11.35669;15.11719;AO;10970
240;Sumbe;-11.20605;13.84371;AO;33277
241;Quibala;-10.73366;14.97995;AO;8915
242;Ondjiva;-17.06667;15.73333;AO;10169
243;Namibe;-15.19611;12.15222;AO;80149
244;Menongue;-14.6585;17.69099;AO;32203
245;Luena;-11.78333;19.91667;AO;21115
246;Lubango;-14.91717;13.4925;AO;102541
247;Longonjo;-12.90667;15.25333;AO;24346
248;Lobito;-12.3644;13.53601;AO;207932
249;Cuito;-12.38333;16.93333;AO;113624
250;Huambo;-12.77611;15.73917;AO;226145
251;Chissamba;-12.16667;17.33333;AO;7677
252;Catumbela;-12.43002;13.54677;AO;16977
253;Catabola;-12.15;17.28333;AO;18855
254;Camacupa;-12.01667;17.48333;AO;19150
255;Caconda;-13.73333;15.06667;AO;10549
256;Caála;-12.8525;15.56056;AO;21205
257;Benguela;-12.57626;13.40547;AO;151226
258;Chela;-12.30261;15.43358;AO;5811
259;Zárate;-34.09814;-59.02858;AR;88781
260;Wanda;-25.96879;-54.56285;AR;15529
261;Villa Ortúzar;-34.57973;-58.46829;AR;22500
262;Villa Ocampo;-28.48752;-59.35515;AR;19101
263;Villa María Grande;-31.66565;-59.90182;AR;7101
264;Villa Lugano;-34.67907;-58.47263;AR;114000
265;Villa Hernandarias;-31.23097;-59.98464;AR;5375
266;Villaguay;-31.8653;-59.02689;AR;32027
267;Villa Gesell;-37.26394;-56.97304;AR;23257
268;Villa Elisa;-32.1632;-58.40082;AR;9334
269;Villa de Mayo;-34.5108;-58.68059;AR;43405
270;Veinticinco de Mayo;-27.37679;-54.74312;AR;11928
271;Urdinarrain;-32.68573;-58.89323;AR;7992
272;Tortuguitas;-34.47513;-58.75367;AR;41390
273;Tigre;-34.42603;-58.57962;AR;31106
274;Tandil;-37.32167;-59.13316;AR;104325
275;San Vicente;-26.61667;-54.13333;AR;38247
276;Santo Tomé;-28.54939;-56.04077;AR;22634
277;Santo Pipó;-27.14132;-55.40867;AR;5447
278;Santa Rosa;-28.26318;-58.11891;AR;8330
279;Santa Lucía;-28.98746;-59.10287;AR;14056
280;Santa Elena;-30.94432;-59.78832;AR;18410
281;San Salvador;-31.62487;-58.50524;AR;11626
282;San Pedro;-33.67918;-59.66633;AR;47452
283;San Pedro;-26.62207;-54.10842;AR;23736
284;San Miguel;-27.99585;-57.58964;AR;7396
285;San Luis del Palmar;-27.5079;-58.55454;AR;15347
286;San Lorenzo;-28.13306;-58.76733;AR;47626
287;San José de Feliciano;-30.38452;-58.75167;AR;11137
288;San José;-27.76979;-55.7826;AR;6452
289;San Javier;-30.57781;-59.9317;AR;15606
290;San Isidro;-34.4721;-58.52708;AR;45190
291;San Clemente del Tuyú;-36.35694;-56.72351;AR;11174
292;Saladas;-28.25384;-58.62591;AR;18349
293;Rosario del Tala;-32.30286;-59.14545;AR;13807
294;Retiro;-34.58333;-58.38333;AR;38635
295;Resistencia;-27.46056;-58.98389;AR;387158
296;Reconquista;-29.15;-59.65;AR;90184
297;Quilmes;-34.72904;-58.26374;AR;230000
298;Puerto Vilelas;-27.51414;-58.93906;AR;8455
299;Puerto Tirol;-27.37218;-59.08206;AR;9767
300;Puerto Rico;-26.79598;-55.02402;AR;17491
301;Puerto Piray;-26.46937;-54.70736;AR;8557
302;Puerto Libertad;-25.91958;-54.58229;AR;6143
303;Puerto Iguazú;-25.59912;-54.57355;AR;32038
304;Puerto Esperanza;-26.02267;-54.61356;AR;15579
305;Puerto Eldorado;-26.40843;-54.69463;AR;54189
306;Presidencia de la Plaza;-27.00147;-59.84243;AR;12231
307;Posadas;-27.36708;-55.89608;AR;323739
308;Pontevedra;-34.74785;-58.70072;AR;33515
309;Pirané;-25.73239;-59.10879;AR;19124
310;Pilar;-34.45866;-58.9142;AR;226517
311;Perugorría;-29.34132;-58.61059;AR;5685
312;Paso de los Libres;-29.71251;-57.08771;AR;43805
313;Paso de la Patria;-27.31676;-58.57197;AR;5818
314;Panambí;-27.72369;-54.91515;AR;5970
315;Pampa del Indio;-26.04982;-59.93728;AR;11588
316;Palo Santo;-25.56332;-59.33781;AR;5324
317;Oberá;-27.48706;-55.11994;AR;56528
318;Nuestra Señora del Rosario de Caa Catí;-27.75072;-57.62073;AR;7573
319;Necochea;-38.5545;-58.73961;AR;80478
320;Muñiz;-34.55622;-58.70739;AR;26221
321;Morón;-34.6509;-58.61956;AR;319934
322;Monte Caseros;-30.25359;-57.63626;AR;24671
323;Montecarlo;-26.5662;-54.757;AR;22229
324;Mocoretá;-30.61891;-57.96344;AR;6088
325;Merlo;-34.66627;-58.72927;AR;244168
326;Mercedes;-34.65145;-59.43068;AR;52949
327;Mercedes;-29.18416;-58.07519;AR;30649
328;Mburucuyá;-28.04532;-58.22835;AR;9012
329;Margarita Belén;-27.2616;-58.97219;AR;5547
330;Mar del Plata;-38.00042;-57.5562;AR;553935
331;Malabrigo;-29.34636;-59.96957;AR;7026
332;Maciá;-32.1722;-59.39947;AR;5806
333;Luján;-34.57028;-59.105;AR;81749
334;Los Polvorines;-34.50316;-58.70596;AR;53354
335;Las Toscas;-28.3529;-59.25795;AR;11811
336;Larroque;-33.03595;-59.00125;AR;6200
337;La Plata;-34.92145;-57.95453;AR;694167
338;La Paz;-30.74179;-59.64517;AR;24716
339;La Leonesa;-27.03786;-58.70347;AR;10067
340;La Cruz;-29.17443;-56.64326;AR;8591
341;Jardín América;-27.04346;-55.22698;AR;24905
342;Itatí;-27.27043;-58.24458;AR;7902
343;Ibarreta;-25.21438;-59.85851;AR;8687
344;Hurlingham;-34.5904;-58.62904;AR;60000
345;Gualeguaychú;-33.00937;-58.51722;AR;78676
346;Gualeguay;-33.14156;-59.30966;AR;33120
347;Goya;-29.13995;-59.26343;AR;70245
348;Gobernador Roca;-27.18636;-55.46433;AR;6315
349;Gobernador Virasora;-28.05;-56.03333;AR;28756
350;General Pacheco;-34.45256;-58.64312;AR;43287
351;General José de San Martín;-26.53743;-59.34158;AR;31758
352;Garupá;-27.48171;-55.82921;AR;28814
353;Garuhapé;-26.81768;-54.95665;AR;8259
354;Formosa;-26.18489;-58.17313;AR;221383
355;Fontana;-27.41813;-59.02392;AR;26745
356;Federal;-30.95465;-58.78326;AR;16333
357;Federación;-31.00621;-57.89962;AR;13789
358;Esquina;-30.01476;-59.5289;AR;26399
359;El Soberbio;-27.29847;-54.19877;AR;19571
360;El Colorado;-26.30808;-59.37291;AR;12780
361;El Alcázar;-26.71459;-54.81523;AR;5127
362;Dos de Mayo;-27.02277;-54.68669;AR;14544
363;Don Torcuato;-34.49459;-58.62729;AR;64867
364;Dolores;-36.31321;-57.67918;AR;25190
365;Curuzú Cuatiá;-29.79171;-58.0546;AR;36390
366;Corrientes;-27.46784;-58.8344;AR;339067
367;Concordia;-31.39296;-58.02089;AR;145210
368;Concepción del Uruguay;-32.48463;-58.23217;AR;67895
369;Concepción de la Sierra;-27.98311;-55.52031;AR;7398
370;Comandante Fontana;-25.33453;-59.68212;AR;5655
371;Colonia Aurora;-27.47428;-54.52498;AR;8407
372;Colegiales;-34.57365;-58.44924;AR;57000
373;Clorinda;-25.28481;-57.71851;AR;15000
374;Chajarí;-30.75048;-57.97962;AR;30655
375;Cerro Azul;-27.6331;-55.4962;AR;5323
376;Capioví;-26.92998;-55.06084;AR;5860
377;Candelaria;-27.4595;-55.74536;AR;11039
378;Campo Viera;-27.33271;-55.05651;AR;9228
379;Campo Ramón;-27.4549;-55.02122;AR;10088
380;Campo Grande;-27.2077;-54.97977;AR;12040
381;Campana;-34.16327;-58.95919;AR;81612
382;Buenos Aires;-34.61315;-58.37723;AR;13076300
383;Bovril;-31.34311;-59.44512;AR;7977
384;Boedo;-34.63333;-58.41667;AR;48231
385;Bernardo de Irigoyen;-26.2552;-53.64581;AR;10889
386;Berazategui;-34.76531;-58.21278;AR;167498
387;Belgrano;-34.5627;-58.45829;AR;138942
388;Barranqueras;-27.48132;-58.93925;AR;50823
389;Barracas;-34.64966;-58.38341;AR;77474
390;Balcarce;-37.84616;-58.25522;AR;38823
391;Azul;-36.77698;-59.85854;AR;53941
392;Avellaneda;-29.11761;-59.65834;AR;23077
393;Aristóbulo del Valle;-27.09625;-54.89626;AR;20683
394;Alvear;-29.09683;-56.55043;AR;7917
395;Alba Posse;-27.56978;-54.68262;AR;6652
396;Zapala;-38.89916;-70.05442;AR;31534
397;Yuto;-23.64342;-64.47194;AR;7732
398;Yerba Buena;-26.81667;-65.31667;AR;50783
399;Yacimiento Río Turbio;-51.57321;-72.3508;AR;6650
400;Villa Regina;-39.1;-67.06667;AR;31209
401;Villa Paula de Sarmiento;-31.4933;-68.53838;AR;19092
402;Villa Ojo de Agua;-29.50003;-63.69377;AR;5832
403;Villa Nueva;-32.43293;-63.24763;AR;16841
404;Villa María;-32.40751;-63.24016;AR;92453
405;Villa La Angostura;-40.76173;-71.64631;AR;7526
406;Villa Huidobro;-34.83826;-64.58686;AR;5155
407;Villa General Belgrano;-31.97828;-64.55627;AR;5888
408;Villa Dolores;-31.94585;-65.18958;AR;28009
409;Villa de Soto;-30.85523;-64.99947;AR;7303
410;Villa del Totoral;-30.81667;-63.71667;AR;7110
411;Villa Constitución;-33.22778;-60.3297;AR;44271
412;Chañar Ladeado;-33.32524;-62.03831;AR;5639
413;Villa Carlos Paz;-31.42414;-64.49778;AR;69451
414;Villa Cañás;-34.00565;-61.60757;AR;9328
415;Villa Berthet;-27.29174;-60.41263;AR;12029
416;Villa Ángela;-27.57383;-60.71526;AR;43511
417;Villa Allende;-31.29458;-64.29538;AR;21683
418;Viedma;-40.81345;-62.99668;AR;48940
419;Vicuña Mackenna;-33.91965;-64.39215;AR;8994
420;Victorica;-36.21505;-65.43586;AR;6565
421;Victoria;-32.61841;-60.15478;AR;25139
422;Viale;-31.86782;-60.00722;AR;8939
423;Vera;-29.4593;-60.21261;AR;19797
424;Venado Tuerto;-33.74556;-61.96885;AR;72340
425;Veinticinco de Mayo;-37.7741;-67.71638;AR;6962
426;Veinticinco de Mayo;-35.4323;-60.17271;AR;24668
427;Valle Hermoso;-31.11732;-64.48084;AR;5486
428;Ushuaia;-54.81084;-68.31591;AR;58028
429;Unquillo;-31.23073;-64.31615;AR;15369
430;Trevelin;-43.0858;-71.46386;AR;6395
431;Tres Isletas;-26.34067;-60.43207;AR;24747
432;Tres Arroyos;-38.37394;-60.27978;AR;47136
433;Trelew;-43.24895;-65.30505;AR;93442
434;Trancas;-26.23136;-65.28093;AR;6658
435;Totoras;-32.5844;-61.16852;AR;9587
436;Tostado;-29.23202;-61.76917;AR;14000
437;Tinogasta;-28.06319;-67.56488;AR;14509
438;Tilisarao;-32.73292;-65.29109;AR;5478
439;Tilcara;-23.57817;-65.39516;AR;5640
440;Termas de Río Hondo;-27.49362;-64.85972;AR;27838
441;Tartagal;-22.51637;-63.80131;AR;60819
442;Tancacha;-32.24309;-63.9807;AR;5184
443;Tafí Viejo;-26.73201;-65.25921;AR;48459
444;Taco Pozo;-25.61557;-63.26708;AR;8470
445;Suncho Corral;-27.93357;-63.42938;AR;6087
446;Sunchales;-30.94404;-61.56148;AR;18757
447;Simoca;-27.26272;-65.35647;AR;7939
448;Sierra Grande;-41.60603;-65.35574;AR;6978
449;Senillosa;-39.01412;-68.43281;AR;6394
450;Sastre;-31.76762;-61.82887;AR;5521
451;Sarmiento;-45.58815;-69.06996;AR;8292
452;Santo Tomé;-31.66274;-60.7653;AR;59072
453;Santiago del Estero;-27.79511;-64.26149;AR;354692
454;Santa Sylvina;-27.83261;-61.13747;AR;9040
455;Santa Rosa de Río Primero;-31.15231;-63.40191;AR;6788
456;Santa Rosa de Calamuchita;-32.06905;-64.53631;AR;9504
457;Santa Rosa;-36.61667;-64.28333;AR;111424
458;Santa Lucía;-31.53987;-68.49503;AR;43565
459;Santa Fe;-31.64881;-60.70868;AR;489505
460;San Salvador de Jujuy;-24.19457;-65.29712;AR;305891
461;San Ramón de la Nueva Orán;-23.13705;-64.32426;AR;74059
462;San Rafael;-34.61772;-68.33007;AR;109163
463;San Pedro de Jujuy;-24.23127;-64.86614;AR;58430
464;San Nicolás de los Arroyos;-33.33425;-60.2108;AR;127742
465;San Miguel de Tucumán;-26.82414;-65.2226;AR;781023
466;San Martín de los Andes;-40.15789;-71.35337;AR;23519
467;San Martín;-33.08103;-68.46814;AR;82549
468;San Martín;-31.42957;-68.50065;AR;10140
469;San Luis;-33.29501;-66.33563;AR;183982
470;San Justo;-30.78913;-60.59189;AR;21809
471;San Juan;-31.5375;-68.53639;AR;447048
472;San José de Jáchal;-30.24057;-68.74693;AR;21018
473;San Jorge;-31.89618;-61.85984;AR;16873
474;San Francisco;-31.42797;-62.08266;AR;59062
475;San Fernando del Valle de Catamarca;-28.46957;-65.78524;AR;188812
476;San Cristóbal;-30.31053;-61.23724;AR;14286
477;San Carlos Centro;-31.72864;-61.09192;AR;10465
478;San Bernardo;-27.28782;-60.71252;AR;11101
479;San Benito;-31.78371;-60.44156;AR;6771
480;San Antonio Oeste;-40.73193;-64.94769;AR;16966
481;San Agustín de Valle Fértil;-30.63353;-67.46821;AR;6864
482;Sampacho;-33.3839;-64.72211;AR;7238
483;Salta;-24.7859;-65.41166;AR;512686
484;Salsipuedes;-31.13725;-64.29589;AR;6411
485;Rufino;-34.26827;-62.71262;AR;18361
486;Rosario;-32.94682;-60.63932;AR;1173533
487;Roldán;-32.89846;-60.90681;AR;12468
488;Río Tercero;-32.17301;-64.11405;AR;53389
489;Río Segundo;-31.6526;-63.9099;AR;18155
490;Río Grande;-53.78769;-67.70946;AR;52681
491;Río Gallegos;-51.62261;-69.21813;AR;85700
492;Río Cuarto;-33.13067;-64.34992;AR;153757
493;Río Ceballos;-31.16486;-64.32241;AR;16632
494;Recreo;-31.49076;-60.73299;AR;12798
495;Recreo;-29.28184;-65.06096;AR;14204
496;Realicó;-35.03658;-64.2447;AR;7151
497;Rawson;-43.30016;-65.10228;AR;26335
498;Rafaela;-31.25033;-61.4867;AR;88713
499;Rada Tilly;-45.92462;-67.55424;AR;6208
500;Quitilipi;-26.86913;-60.21683;AR;32083
501;Quimilí;-27.64615;-62.41655;AR;10959
502;Punta Alta;-38.87588;-62.07359;AR;57209
503;San Julián;-49.30554;-67.72743;AR;6143
504;Puerto Madryn;-42.7692;-65.03851;AR;64555
505;Puerto Deseado;-47.75034;-65.89382;AR;10237
506;Presidencia Roque Sáenz Peña;-26.78522;-60.43876;AR;81879
507;Pozo del Molle;-32.0186;-62.91984;AR;5429
508;Pocito;-31.68333;-68.58333;AR;40969
509;Plottier;-38.96667;-68.23333;AR;25186
510;Plaza Huincul;-38.92598;-69.20863;AR;12273
511;Pilar;-31.6789;-63.87964;AR;12488
512;Pico Truncado;-46.7949;-67.95731;AR;14985
513;Pergamino;-33.88995;-60.57357;AR;87652
514;Pérez;-32.99835;-60.76791;AR;24436
515;Paraná;-31.73271;-60.52897;AR;262295
516;Pampa del Infierno;-26.50517;-61.17436;AR;8176
517;Palpalá;-24.25647;-65.21163;AR;48199
518;Palma Sola;-23.97771;-64.30311;AR;5318
519;Oncativo;-31.91353;-63.68201;AR;12660
520;Oliva;-32.04158;-63.56978;AR;11629
521;Olavarría;-36.89272;-60.32254;AR;86320
522;Nueve de Julio;-35.44437;-60.88313;AR;34718
523;Nueve de Julio;-31.66914;-68.39023;AR;7652
524;Neuquén;-38.95161;-68.0591;AR;242092
525;Morteros;-30.71164;-61.99862;AR;15129
526;Monteros;-27.16741;-65.49832;AR;23771
527;Monte Maíz;-33.20462;-62.60085;AR;6920
528;Monte Cristo;-31.34312;-63.94437;AR;6914
529;Monte Buey;-32.91642;-62.45669;AR;5497
530;Mina Clavero;-31.72101;-65.00619;AR;6855
531;Merlo;-32.34288;-65.01396;AR;11159
532;Mendoza;-32.89084;-68.82717;AR;876884
533;Marcos Juárez;-32.6978;-62.10672;AR;24226
534;Malvinas Argentinas;-31.38194;-64.05545;AR;8628
535;Malagueño;-31.46467;-64.3584;AR;9364
536;Machagai;-26.92614;-60.04955;AR;28070
537;Los Frentones;-26.4077;-61.41367;AR;6610
538;Los Altos;-28.04845;-65.49945;AR;6421
539;Lincoln;-34.86649;-61.5302;AR;41808
540;Libertador General San Martín;-23.80644;-64.78757;AR;49267
541;Leones;-32.66174;-62.29678;AR;9971
542;La Toma;-33.05258;-65.62385;AR;6663
543;Las Varillas;-31.87208;-62.71946;AR;14649
544;Las Rosas;-32.47661;-61.58041;AR;12793
545;Las Parejas;-32.68478;-61.51637;AR;11317
546;Las Lomitas;-24.70955;-60.59303;AR;10354
547;Las Lajitas;-24.72762;-64.19335;AR;9151
548;Las Higueras;-33.09231;-64.28899;AR;5282
549;Las Heras;-46.54186;-68.93593;AR;9303
550;Las Breñas;-27.08966;-61.08161;AR;26955
551;La Rioja;-29.41105;-66.85067;AR;162620
552;La Quiaca;-22.10236;-65.59299;AR;14751
553;Lamarque;-39.42304;-65.70208;AR;7819
554;Laguna Paiva;-31.30391;-60.65894;AR;12250
555;Laguna Larga;-31.77652;-63.80104;AR;7137
556;La Falda;-31.08841;-64.48987;AR;15112
557;La Cumbre;-30.98201;-64.49139;AR;7235
558;La Cocha;-27.76927;-65.58711;AR;7066
559;La Carlota;-33.41993;-63.29769;AR;11490
560;La Calera;-31.34377;-64.33529;AR;24796
561;Laboulaye;-34.12662;-63.39119;AR;19908
562;Laborde;-33.15319;-62.85661;AR;5492
563;Justo Daract;-33.8594;-65.18277;AR;9680
564;Justiniano Posse;-32.88411;-62.67788;AR;7406
565;Junín de los Andes;-39.95043;-71.06936;AR;10592
566;Junín;-34.58382;-60.94332;AR;85007
567;Joaquín V. González;-25.11364;-64.12628;AR;19185
568;Jesús María;-30.98153;-64.09424;AR;26825
569;Intendente Alvear;-35.23383;-63.59205;AR;6990
570;Ingenio La Esperanza;-24.22554;-64.83896;AR;5002
571;Ingeniero Luis A. Huergo;-39.07146;-67.2379;AR;6483
572;Ingeniero Jacobacci;-41.3292;-69.55015;AR;5785
573;Ingeniero Guillermo N. Juárez;-23.9;-61.85;AR;10357
574;Icaño;-28.91934;-65.32817;AR;6857
575;Humahuaca;-23.20544;-65.35048;AR;11369
576;Huinca Renancó;-34.84038;-64.3758;AR;8637
577;Huillapima;-28.72533;-65.9787;AR;7779
578;Huerta Grande;-31.07524;-64.49063;AR;5630
579;Hernando;-32.42657;-63.73333;AR;10486
580;Hermoso Campo;-27.60816;-61.34441;AR;7435
581;Guatraché;-37.66776;-63.53021;AR;5271
582;Graneros;-27.64934;-65.4383;AR;5263
583;Granadero Baigorria;-32.85683;-60.71754;AR;32427
584;Gobernador Gálvez;-33.03016;-60.64045;AR;74650
585;General Villegas;-35.03285;-63.01252;AR;16270
586;General Roca;-39.03333;-67.58333;AR;73212
587;General Ramírez;-32.17601;-60.20079;AR;8614
588;General Pinedo;-27.31667;-61.28333;AR;15741
589;General Pico;-35.65662;-63.75682;AR;57029
590;General Levalle;-34.01472;-63.92413;AR;5492
591;General Fernández Oro;-38.95297;-67.92489;AR;6813
592;General Enrique Mosconi;-22.59588;-63.81255;AR;19811
593;General Conesa;-40.10408;-64.45592;AR;5595
594;General Cabrera;-32.81313;-63.87243;AR;10351
595;General Acha;-37.37698;-64.60431;AR;12536
596;Gálvez;-32.02927;-61.22103;AR;18374
597;Gaimán;-43.2897;-65.4929;AR;5753
598;Funes;-32.91568;-60.80995;AR;14750
599;Fray Luis Beltrán;-39.31369;-65.76002;AR;6401
600;Fray Luis A. Beltrán;-32.79122;-60.72819;AR;14390
601;Fraile Pintado;-23.94079;-64.79943;AR;13682
602;Firmat;-33.45937;-61.4832;AR;18294
603;Fiambalá;-27.67225;-67.6187;AR;8061
604;Famaillá;-27.05413;-65.40329;AR;30951
605;Esquel;-42.91147;-71.31947;AR;28486
606;Esperanza;-31.4488;-60.93173;AR;35885
607;Embarcación;-23.21003;-64.09965;AR;23961
608;Embalse;-32.18;-64.41809;AR;15900
609;El Trébol;-32.2008;-61.7014;AR;10871
610;El Quebrachal;-25.28333;-64.06667;AR;10243
611;El Galpón;-25.38069;-64.65259;AR;8357
612;El Carril;-25.0741;-65.49174;AR;9780
613;El Calafate;-50.34075;-72.27682;AR;8000
614;El Bolsón;-41.96051;-71.53336;AR;15537
615;Eduardo Castex;-35.91501;-64.29448;AR;9861
616;Diamante;-32.06641;-60.63837;AR;19545
617;Devoto;-31.40431;-62.30634;AR;5597
618;Despeñaderos;-31.81626;-64.28989;AR;5645
619;Deán Funes;-30.42036;-64.34984;AR;20164
620;Cutral-Có;-38.93424;-69.23052;AR;47380
621;Cruz del Eje;-30.72644;-64.80387;AR;28166
622;Cruz Alta;-33.00887;-61.80746;AR;6862
623;Crespo;-32.02873;-60.30658;AR;18296
624;Cosquín;-31.24508;-64.46563;AR;19070
625;Corzuela;-26.95374;-60.96928;AR;10470
626;Corral de Bustos;-33.28205;-62.18463;AR;9882
627;Coronel Suárez;-37.45467;-61.93343;AR;27000
628;Coronel Moldes;-33.6227;-64.59711;AR;8104
629;Coronel Du Graty;-27.68038;-60.91462;AR;9140
630;Coronel Dorrego;-38.71867;-61.28733;AR;11644
631;Coronda;-31.97263;-60.91983;AR;16975
632;Córdoba;-31.4135;-64.18105;AR;1428214
633;Concepción del Bermejo;-26.59926;-60.94617;AR;5830
634;Comodoro Rivadavia;-45.86413;-67.49656;AR;140850
635;Clodomira;-27.5744;-64.13108;AR;9043
636;Cipolletti;-38.93392;-67.99032;AR;75078
637;Cinco Saltos;-38.82225;-68.06293;AR;19819
638;Chos Malal;-37.37809;-70.27085;AR;11721
639;Choele Choel;-39.28941;-65.6606;AR;9791
640;Chivilcoy;-34.89566;-60.01667;AR;54514
641;Chimbas;-31.48333;-68.53333;AR;73829
642;Chilecito;-29.16195;-67.4974;AR;42248
643;Chicoana;-25.10502;-65.53473;AR;8468
644;Charata;-27.21438;-61.18795;AR;27813
645;Chamical;-30.36002;-66.31399;AR;13383
646;Chacabuco;-34.64167;-60.47389;AR;34587
647;Cervantes;-39.05444;-67.39426;AR;5173
648;Ceres;-29.881;-61.94504;AR;13063
649;Centenario;-38.82955;-68.1318;AR;28956
650;Caucete;-31.65179;-68.28105;AR;33609
651;Catriel;-37.87907;-67.7956;AR;15169
652;Castelli;-25.94679;-60.61947;AR;36588
653;Casilda;-33.04417;-61.16806;AR;32002
654;Carcarañá;-32.85679;-61.15331;AR;15619
655;Capitán Bermúdez;-32.82262;-60.71852;AR;27060
656;Capilla del Monte;-30.86088;-64.52515;AR;9085
657;Capayán;-28.77436;-66.04749;AR;6358
658;Canals;-33.56542;-62.88927;AR;8343
659;Cañada de Gómez;-32.81636;-61.39493;AR;36000
660;Campo Largo;-26.80077;-60.84215;AR;10743
661;Campo Gallo;-26.58333;-62.85;AR;5455
662;Calingasta;-31.33394;-69.4208;AR;8176
663;Calilegua;-23.77368;-64.77002;AR;5174
664;Caleta Olivia;-46.43929;-67.52814;AR;36077
665;Calchaquí;-29.88767;-60.28697;AR;10221
666;Caimancito;-23.74069;-64.5937;AR;5403
667;Cafayate;-26.07286;-65.97766;AR;11785
668;Brinkmann;-30.86589;-62.03742;AR;8237
669;Berrotarán;-32.451;-64.38867;AR;6446
670;Beltrán;-27.82913;-64.06098;AR;5321
671;Bell Ville;-32.62591;-62.68873;AR;35105
672;Bella Vista;-27.03424;-65.30196;AR;15126
673;Balnearia;-31.0088;-62.66733;AR;5585
674;Bahía Blanca;-38.71959;-62.27243;AR;276546
675;Aviá Terai;-26.68532;-60.7292;AR;6821
676;Arroyo Seco;-33.15489;-60.50863;AR;20008
677;Arroyito;-31.42022;-63.05002;AR;19577
678;Armstrong;-32.78215;-61.60222;AR;10388
679;Arias;-33.64411;-62.40272;AR;6928
680;Arauco;-28.58071;-66.7925;AR;13720
681;Apolinario Saravia;-24.43276;-63.99535;AR;8595
682;Andalgalá;-27.58185;-66.31626;AR;14068
683;Añatuya;-28.46064;-62.83472;AR;20261
684;Alta Gracia;-31.65292;-64.42826;AR;40384
685;Almafuerte;-32.19296;-64.25559;AR;10534
686;Allen;-38.97736;-67.82714;AR;26083
687;Alderetes;-26.81667;-65.13333;AR;38466
688;Albardón;-31.43722;-68.52556;AR;20413
689;Aguilares;-27.4338;-65.61427;AR;32494
690;Adelia María;-33.63152;-64.02097;AR;6434
691;Abra Pampa;-22.72049;-65.69697;AR;9425
692;Balvanera;-34.61032;-58.39766;AR;152198
693;Villa Santa Rita;-34.61082;-58.481;AR;34000
694;Villa Mercedes;-33.67571;-65.45783;AR;96781
695;La Punta;-33.18368;-66.3127;AR;15000
696;San Miguel;-34.54335;-58.71229;AR;157532
697;San Carlos de Bariloche;-41.14557;-71.30822;AR;95394
698;Río Turbio;-51.53587;-72.33673;AR;6650
699;Adrogué;-34.80041;-58.38384;AR;28265
700;Ingeniero Pablo Nogués;-34.47775;-58.70652;AR;38470
701;Taulaga;-11.05528;-171.08833;AS;37
702;Ta`ū;-14.23361;-169.51444;AS;873
703;Tāfuna;-14.33583;-170.72;AS;11017
704;Pago Pago;-14.27806;-170.7025;AS;11500
705;Neu-Guntramsdorf;48.0642;16.31573;AT;9071
706;Zirl;47.2741;11.23961;AT;8162
707;Zell am See;47.32556;12.79444;AT;7619
708;Wörgl;47.48906;12.06174;AT;13811
709;Wolfurt;47.46667;9.75;AT;8446
710;Wölfnitz;46.66639;14.25806;AT;5316
711;Wimpassing;48.16667;13.98333;AT;5748
712;Wilten;47.25829;11.38808;AT;18142
713;Wilhelmsburg;48.10571;15.60539;AT;6557
714;Wiener Neustadt;47.80485;16.23196;AT;44820
715;Wiener Neudorf;48.08278;16.31384;AT;9405
716;Vienna;48.20849;16.37208;AT;1691468
717;Wetzelsdorf;47.05293;15.39923;AT;15687
718;Wels;48.16667;14.03333;AT;16857
719;Weiz;47.21667;15.61667;AT;9221
720;Weinzierl bei Krems;48.4;15.6;AT;24092
721;Wattens;47.29419;11.5907;AT;7881
722;Waltendorf;47.06667;15.46667;AT;11960
723;Vösendorf;48.12107;16.34036;AT;6990
724;Vorchdorf;48.00388;13.92122;AT;7475
725;Völs;47.25;11.33333;AT;6738
726;Völkendorf;46.60806;13.83153;AT;5474
727;Voitsberg;47.04445;15.15313;AT;9403
728;Villach;46.61028;13.85583;AT;58882
729;Viktring;46.59194;14.26917;AT;9407
730;Tulln;48.32829;16.05858;AT;12421
731;Trofaiach;47.42524;15.00681;AT;7728
732;Traun;48.22656;14.23459;AT;11267
733;Traiskirchen;48.01485;16.29324;AT;6608
734;Ternitz;47.71565;16.03575;AT;7378
735;Telfs;47.30707;11.06817;AT;15229
736;Strasshof an der Nordbahn;48.31667;16.66667;AT;10009
737;Straßgang;47.03333;15.4;AT;16268
738;Stockerau;48.38333;16.21667;AT;16292
739;Steyr;48.04274;14.42127;AT;38331
740;Spratzern;48.17044;15.61844;AT;6376
741;Spittal an der Drau;46.8;13.5;AT;12880
742;Sollenau;47.89834;16.24833;AT;5038
743;Hall in Tirol;47.28333;11.51667;AT;13334
744;Simmering;48.18333;16.43333;AT;101420
745;Seiersberg;47.0;15.4;AT;7728
746;Schwechat;48.13333;16.46667;AT;12351
747;Schwaz;47.35169;11.71014;AT;13728
748;Sankt Veit an der Glan;46.76806;14.36028;AT;10841
749;Sankt Valentin;48.16667;14.51667;AT;9340
750;Sankt Ruprecht;46.6;14.31667;AT;7442
751;Sankt Pölten;48.2;15.63333;AT;21911
752;Sankt Peter;47.05;15.46667;AT;15187
753;Sankt Peter;46.62978;14.34016;AT;20320
754;Sankt Martin;46.61667;14.28333;AT;20000
755;Sankt Martin;48.23091;14.26781;AT;6984
756;Sankt Johann in Tirol;47.5233;12.4232;AT;9428
757;Salzburg;47.79941;13.04399;AT;153377
758;Saalfelden am Steinernen Meer;47.42681;12.848;AT;8688
759;Rum;47.28333;11.45;AT;9190
760;Ries;47.08315;15.485;AT;5819
761;Ried im Innkreis;48.21123;13.48855;AT;11903
762;Reutte;47.48333;10.71667;AT;6704
763;Rankweil;47.27108;9.64308;AT;11855
764;Purkersdorf;48.20769;16.17539;AT;9701
765;Puntigam;47.03333;15.43333;AT;8647
766;Pressbaum;48.18333;16.08333;AT;6237
767;Pradl;47.26539;11.4152;AT;32588
768;Pinkafeld;47.36667;16.11667;AT;5438
769;Perg;48.25;14.63333;AT;5812
770;Perchtoldsdorf;48.11935;16.26607;AT;15047
771;Ottakring;48.21667;16.3;AT;104627
772;Oberwart;47.28971;16.20595;AT;7288
773;Oberndorf bei Salzburg;47.95;12.93333;AT;5794
774;Neuzeug;48.05;14.33333;AT;5346
775;Neusiedl am See;47.94901;16.8417;AT;8235
776;Neunkirchen;47.72096;16.08107;AT;11461
777;Neuhofen an der Krems;48.13866;14.22764;AT;6269
778;Mürzzuschlag;47.6066;15.67226;AT;5975
779;Mühlau;47.28333;11.4;AT;5435
780;Mödling;48.08605;16.28921;AT;20555
781;Mistelbach;48.57;16.57667;AT;6463
782;Micheldorf in Oberösterreich;47.87764;14.13357;AT;5854
783;Meidling;48.16667;16.33333;AT;97624
784;Mattighofen;48.10732;13.15081;AT;6524
785;Mattersburg;47.73333;16.4;AT;6577
786;Mariatrost;47.1;15.5;AT;9631
787;Maria Enzersdorf;48.1;16.28333;AT;8829
788;Marchtrenk;48.19275;14.11394;AT;8394
789;Lustenau;47.42642;9.65851;AT;22821
790;Lochau;47.53333;9.75;AT;5747
791;Linz;48.30639;14.28611;AT;204846
792;Liezen;47.56667;14.23333;AT;6587
793;Lienz;46.8289;12.76903;AT;11572
794;Liebenau;47.03333;15.46667;AT;14447
795;Lichtenegg;48.15;14.0;AT;6163
796;Leopoldsdorf;48.11557;16.39126;AT;5078
797;Leoben;47.3765;15.09144;AT;8264
798;Leibnitz;46.78161;15.53836;AT;8533
799;Lauterach;47.47572;9.72941;AT;10267
800;Langenzersdorf;48.30432;16.36143;AT;8137
801;Landeck;47.13988;10.56593;AT;7725
802;Laakirchen;47.98188;13.82166;AT;9861
803;Kufstein;47.58333;12.16667;AT;9848
804;Kremsmünster;48.0529;14.12919;AT;6585
805;Krems an der Donau;48.40921;15.61415;AT;14473
806;Kottingbrunn;47.95096;16.22715;AT;7417
807;Korneuburg;48.35;16.33333;AT;12986
808;Knittelfeld;47.21667;14.81667;AT;11521
809;Klosterneuburg;48.30521;16.32522;AT;15614
810;Klagenfurt am Wörthersee;46.62472;14.30528;AT;90610
811;Kitzbühel;47.44637;12.39215;AT;8272
812;Kirchberg in Tirol;47.44539;12.31602;AT;5245
813;Kindberg;47.5;15.45;AT;5197
814;Kalsdorf bei Graz;46.96528;15.48028;AT;5171
815;Judendorf;47.4;15.1;AT;5475
816;Judenburg;47.16667;14.66667;AT;8481
817;Jenbach;47.39173;11.77245;AT;7120
818;Innsbruck;47.26266;11.39454;AT;132493
819;Innere Stadt;48.20906;16.37135;AT;16450
820;Imst;47.24504;10.73974;AT;10504
821;Hötting;47.26815;11.36868;AT;35043
822;Horn;48.66274;15.65663;AT;5494
823;Hörbranz;47.55;9.75;AT;6346
824;Hollabrunn;48.55;16.08333;AT;6882
825;Hohenems;47.36667;9.68306;AT;16317
826;Höchst;47.45934;9.6405;AT;7995
827;Himberg;48.08333;16.43333;AT;5331
828;Hietzing;48.18623;16.2965;AT;54265
829;Hernals;48.23333;16.26667;AT;57546
830;Hart;48.26526;14.25691;AT;5610
831;Hard;47.48306;9.68306;AT;13495
832;Hallein;47.68333;13.1;AT;7208
833;Hainburg an der Donau;48.14627;16.94504;AT;6570
834;Haid;48.20477;14.25107;AT;7424
835;Hafendorf;47.45653;15.31837;AT;6506
836;Haag;48.27063;14.26875;AT;5273
837;Guntramsdorf;48.04687;16.31384;AT;9179
838;Groß-Enzersdorf;48.20278;16.55083;AT;6616
839;Graz;47.06667;15.45;AT;222326
840;Gratkorn;47.13333;15.35;AT;6806
841;Götzis;47.33306;9.63306;AT;11473
842;Gösting;47.09788;15.39777;AT;11255
843;Gmunden;47.91839;13.79933;AT;13191
844;Gleisdorf;47.10559;15.71011;AT;6418
845;Gerasdorf bei Wien;48.29447;16.46765;AT;9442
846;Gänserndorf;48.33925;16.72016;AT;11404
847;Gallneukirchen;48.35363;14.41604;AT;6492
848;Fürstenfeld;47.05;16.08333;AT;6327
849;Freistadt;48.51103;14.50453;AT;7397
850;Floridsdorf;48.25;16.4;AT;162779
851;Feldkirch;47.23306;9.6;AT;33420
852;Enns;48.21346;14.47612;AT;9812
853;Eisenstadt;47.84565;16.52327;AT;9217
854;Eggenberg;47.07;15.39871;AT;20511
855;Ebreichsdorf;47.95579;16.40705;AT;5236
856;Dornbirn;47.41427;9.74195;AT;49278
857;Deutsch-Wagram;48.29972;16.56667;AT;8651
858;Deutschlandsberg;46.81528;15.22222;AT;8429
859;Deuchendorf;47.46593;15.32172;AT;5507
860;Brunn am Gebirge;48.10697;16.28466;AT;11864
861;Bruck an der Mur;47.41667;15.28333;AT;9093
862;Bruck an der Leitha;48.01667;16.76667;AT;6882
863;Breitenfurt bei Wien;48.13333;16.15;AT;5853
864;Bregenz;47.50311;9.7471;AT;29471
865;Bludenz;47.15476;9.82255;AT;13534
866;Bischofshofen;47.41667;13.21667;AT;7457
867;Berndorf;47.94567;16.10973;AT;9064
868;Bad Vöslau;47.96533;16.21359;AT;7469
869;Bad Hall;48.03832;14.20773;AT;5296
870;Baden;48.00543;16.23264;AT;26286
871;Axams;47.23111;11.27892;AT;5130
872;Arzl;47.28333;11.43333;AT;11082
873;Annabichl;46.65;14.31667;AT;11374
874;Amstetten;48.1229;14.87206;AT;15559
875;Amras;47.25;11.41667;AT;5771
876;Altach;47.35;9.65;AT;6624
877;Absam;47.29572;11.50593;AT;7112
878;Finkenstein am Faaker See;46.57904;13.93496;AT;8406
879;Attnang-Puchheim;48.00833;13.71667;AT;8908
880;Auen;46.59963;13.84389;AT;6563
881;Favoriten;48.16116;16.38233;AT;201882
882;Frastanz;47.21735;9.62995;AT;6434
883;Kirchbichl;47.51743;12.09629;AT;5855
884;Kirchenviertel;47.13124;15.34764;AT;5791
885;Oberhaid;48.17593;14.01495;AT;5100
886;Villacher Vorstadt;46.62368;14.28892;AT;8421
887;Lind;46.62244;13.84715;AT;5252
888;Villach-Innere Stadt;46.61275;13.84638;AT;8189
889;Donaustadt;48.2333;16.46002;AT;187007
890;Jakomini;47.05441;15.44984;AT;32912
891;Lend;47.08256;15.41589;AT;31147
892;Geidorf;47.08393;15.444;AT;24767
893;Sankt Leonhard;47.06924;15.45784;AT;15853
894;Andritz;47.11387;15.42348;AT;19020
895;Gries;47.06236;15.42421;AT;29363
896;Yanchep;-31.54678;115.63171;AU;8571
897;Wembley;-31.93308;115.81783;AU;11094
898;Wellard;-32.26667;115.83333;AU;8849
899;Wanneroo;-31.75;115.8;AU;11721
900;Swan View;-31.88333;116.05;AU;7735
901;Subiaco;-31.9485;115.8268;AU;9690
902;Strathalbyn;-35.25979;138.89247;AU;6348
903;Spearwood;-32.10534;115.77797;AU;9872
904;South Perth;-31.98333;115.86667;AU;11939
905;Seaton;-34.9;138.51667;AU;10208
906;Scarborough;-31.89578;115.76431;AU;15258
907;Salisbury;-34.76667;138.63333;AU;8136
908;Safety Bay;-32.30463;115.74213;AU;7121
909;Roleystone;-32.11458;116.0706;AU;6425
910;Rockingham;-32.27682;115.72978;AU;108022
911;Prospect;-34.88241;138.5933;AU;12995
912;Port Pirie;-33.19176;138.01746;AU;13206
913;Port Lincoln;-34.72625;135.87442;AU;13810
914;Port Hedland;-20.31215;118.61059;AU;5570
915;Port Augusta;-32.49597;137.77281;AU;6469
916;Perth;-31.95224;115.8614;AU;1896548
917;Nuriootpa;-34.46825;138.99767;AU;6213
918;Northam;-31.64932;116.67423;AU;6517
919;Newman;-23.35644;119.73553;AU;12316
920;Nedlands;-31.98184;115.8073;AU;10949
921;Murray Bridge;-35.11986;139.27345;AU;14491
922;Mount Isa;-20.72523;139.49727;AU;22785
923;Mount Barker;-35.06667;138.86667;AU;13583
924;Mosman Park;-32.00538;115.7638;AU;8566
925;Morphett Vale;-35.13333;138.51667;AU;22788
926;Modbury;-34.83333;138.68333;AU;5306
927;Midland;-31.88909;116.0107;AU;6105
928;Maylands;-31.93097;115.89486;AU;12101
929;Margaret River;-33.95504;115.07599;AU;7571
930;Mandurah;-32.5269;115.7217;AU;83294
931;Maddington;-32.05;115.98333;AU;11198
932;Kwinana;-32.23013;115.78128;AU;30433
933;Kununurra;-15.77825;128.74208;AU;6836
934;Kenwick;-32.03333;115.96667;AU;5648
935;Kelmscott;-32.12434;116.0259;AU;10278
936;Ingle Farm;-34.83333;138.63333;AU;8679
937;Hope Valley;-34.83333;138.7;AU;8223
938;Happy Valley;-35.08333;138.53333;AU;11531
939;Grange;-34.90223;138.49022;AU;5759
940;Gosnells;-32.081;116.0054;AU;19914
941;Golden Grove;-34.78333;138.73333;AU;10017
942;Geraldton;-28.77897;114.61459;AU;26872
943;Gawler;-34.60251;138.74902;AU;20006
944;Fremantle;-32.05632;115.74557;AU;8616
945;Findon;-34.9;138.53333;AU;6178
946;Darwin;-12.46113;130.84185;AU;129062
947;Cottesloe;-31.99426;115.75816;AU;7136
948;Collie;-33.36206;116.15617;AU;7396
949;Caversham;-31.88333;115.96667;AU;5182
950;Carnarvon;-24.88258;113.65713;AU;7392
951;Cannington;-32.01625;115.93648;AU;5906
952;Campbelltown;-34.88333;138.66667;AU;8130
953;Byford;-32.22099;116.009;AU;14564
954;Busselton;-33.65249;115.3455;AU;21898
955;Bunbury;-33.32711;115.64137;AU;68248
956;Bullsbrook;-31.66905;115.9999;AU;5102
957;Broome;-17.95538;122.23922;AU;5314
958;Bentley;-32.00224;115.92473;AU;8323
959;Bassendean;-31.90906;115.9437;AU;10141
960;Australind;-33.2792;115.71504;AU;13940
961;Armadale;-32.14607;116.0093;AU;13427
962;Applecross;-32.01667;115.83333;AU;6676
963;Alice Springs;-23.69748;133.88362;AU;25186
964;Albany;-35.02692;117.88369;AU;33650
965;Adelaide;-34.92866;138.59863;AU;1225235
966;Eaton;-33.31664;115.70503;AU;8166
967;Quinns Rocks;-31.67379;115.70372;AU;8442
968;East Fremantle;-32.03823;115.7676;AU;7209
969;Claremont;-31.97961;115.7823;AU;8033
970;Bicton;-32.02778;115.78333;AU;6422
971;Attadale;-32.02489;115.802;AU;6196
972;Warnbro;-32.34017;115.7473;AU;10426
973;Mullaloo;-31.77896;115.73676;AU;5794
974;Young;-34.3135;148.30107;AU;10160
975;Yeppoon;-23.12683;150.74406;AU;13285
976;Yass;-34.84036;148.90987;AU;6454
977;Yarrawonga;-36.01923;145.99973;AU;7630
978;Yarraville;-37.81667;144.9;AU;14733
979;Yamba;-29.4375;153.35914;AU;6913
980;Wynyard;-40.9897;145.72617;AU;5820
981;Wynnum;-27.44527;153.15813;AU;12650
982;Woy Woy;-33.48433;151.32471;AU;10668
983;Worongary;-28.05;153.35;AU;5598
984;Woree;-16.95;145.75;AU;5351
985;Woonona;-34.34932;150.91443;AU;11980
986;Woolgoolga;-30.11058;153.20067;AU;5495
987;Woodridge;-27.63333;153.1;AU;12425
988;Woodend;-37.35469;144.52902;AU;5709
989;Wollert;-37.58333;145.03333;AU;9053
990;Wodonga;-36.12179;146.88809;AU;18582
991;Wingham;-31.86676;152.36989;AU;5329
992;Windsor;-37.85344;144.99241;AU;7257
993;Williamstown;-37.86349;144.899;AU;13869
994;Whittlesea;-37.51152;145.11836;AU;5552
995;Wheelers Hill;-37.9;145.18333;AU;19369
996;West Tamworth;-31.10236;150.91447;AU;5259
997;West Pymble;-33.76667;151.13333;AU;5211
998;Westmead;-33.80383;150.98768;AU;17835
999;West Hoxton;-33.93388;150.83234;AU;9978
1000;Werribee;-37.9;144.66667;AU;40143
1001;Wentworthville;-33.80652;150.96785;AU;11328
1002;Wentworth Falls;-33.71033;150.37534;AU;5928
1003;Wendouree;-37.53078;143.82838;AU;10197
1004;Wellington Point;-27.48333;153.25;AU;12052
1005;Waurn Ponds;-38.21667;144.28333;AU;5198
1006;Wauchope;-31.45792;152.72617;AU;6252
1007;Watsonia;-37.71667;145.08333;AU;5146
1008;Warwick;-28.21901;152.03438;AU;12208
1009;Warrnambool;-38.38176;142.48799;AU;29176
1010;Warrandyte;-37.75;145.23333;AU;5368
1011;Warragul;-38.15912;145.93118;AU;15284
1012;Wantirna South;-37.88333;145.21667;AU;19081
1013;Wantirna;-37.85;145.21667;AU;13995
1014;Wangaratta;-36.35846;146.32056;AU;17897
1015;Wamberal;-33.41554;151.44559;AU;6378
1016;Wallsend;-32.90133;151.66432;AU;12344
1017;Wallan;-37.41625;144.97859;AU;10953
1018;Waitara;-33.71092;151.1033;AU;5874
1019;Wahroonga;-33.71816;151.11561;AU;17652
1020;Wagga Wagga;-35.12577;147.35375;AU;7690
1021;Villawood;-33.88434;150.98027;AU;6067
1022;Victoria Point;-27.58329;153.31172;AU;14669
1023;Vermont;-37.83616;145.19428;AU;10239
1024;Vaucluse;-33.85549;151.27754;AU;9205
1025;Urraween;-25.29522;152.82206;AU;7000
1026;Urangan;-25.29214;152.90535;AU;10758
1027;Upwey;-37.9;145.33333;AU;6501
1028;Upper Coomera;-27.87683;153.28572;AU;24956
1029;Unanderra;-34.45306;150.84746;AU;5430
1030;Ulverstone;-41.16026;146.18242;AU;6189
1031;Ulladulla;-35.35906;150.47247;AU;6468
1032;Tweed Heads;-28.17671;153.5452;AU;9017
1033;Turramurra;-33.73342;151.12849;AU;11690
1034;Tuncurry;-32.17443;152.49876;AU;6277
1035;Tumut;-35.30642;148.21818;AU;6167
1036;Tullamarine;-37.70128;144.881;AU;6783
1037;Tugun;-28.15;153.5;AU;6951
1038;Truganina;-37.81667;144.75;AU;20646
1039;Trinity Beach;-16.78876;145.69682;AU;6057
1040;Traralgon;-38.19528;146.5415;AU;24605
1041;Townsville;-19.26639;146.80569;AU;196219
1042;Torquay;-38.33085;144.32638;AU;12854
1043;Torquay;-25.28496;152.87886;AU;7426
1044;Toowoomba;-27.56056;151.95386;AU;131258
1045;Toowong;-27.48333;152.98333;AU;10780
1046;Toorak;-37.84165;145.01438;AU;12556
1047;Toongabbie;-33.78333;150.95;AU;14218
1048;Thornton;-32.78333;151.63333;AU;7879
1049;Thornleigh;-33.73228;151.07895;AU;8395
1050;Thornlands;-27.55751;153.26481;AU;14475
1051;Thornbury;-37.75819;145.00583;AU;18292
1052;Thomastown;-37.68333;145.01667;AU;20441
1053;Thirroul;-34.31604;150.92142;AU;5920
1054;Tewantin;-26.39104;153.03432;AU;11157
1055;Terrigal;-33.44815;151.44665;AU;11309
1056;Templestowe Lower;-37.76667;145.11667;AU;13233
1057;Templestowe;-37.75405;145.14864;AU;16305
1058;Tarragindi;-27.52713;153.04556;AU;10572
1059;Tarneit;-37.83634;144.65952;AU;34372
1060;Taree;-31.91099;152.45387;AU;16359
1061;Tamworth;-31.09048;150.92905;AU;47597
1062;Tahmoor;-34.22246;150.59467;AU;5016
1063;Sydney;-33.86785;151.20732;AU;4627345
1064;Sydenham;-37.7;144.76667;AU;10731
1065;Swan Hill;-35.33781;143.5544;AU;10875
1066;Sutherland;-34.031;151.05532;AU;10657
1067;Surry Hills;-33.88374;151.21282;AU;16492
1068;Surrey Hills;-37.81667;145.1;AU;13268
1069;Surfers Paradise;-28.00274;153.42999;AU;31073
1070;Sunshine;-37.78333;144.83333;AU;9558
1071;Sunnybank;-27.58003;153.06064;AU;8622
1072;Sunbury;-37.57742;144.72607;AU;35449
1073;Strathpine;-27.30414;152.98977;AU;9352
1074;Strathfieldsaye;-36.80667;144.35487;AU;5283
1075;Strathfield;-33.88096;151.07986;AU;25769
1076;Stawell;-37.05632;142.78088;AU;5889
1077;Stanthorpe;-28.65425;151.93388;AU;5378
1078;Stanmore;-33.89407;151.16424;AU;7879
1079;Springwood;-33.7;150.55;AU;8358
1080;Springvale South;-37.96667;145.15;AU;12653
1081;Springvale;-37.94853;145.15274;AU;21572
1082;Spring Hill;-27.46141;153.02311;AU;7213
1083;South Yarra;-37.83834;144.99149;AU;25237
1084;Southport;-27.96724;153.39796;AU;32965
1085;South Melbourne;-37.83333;144.96667;AU;10757
1086;South Grafton;-29.7076;152.92627;AU;6164
1087;Somerville;-38.21667;145.16667;AU;11062
1088;Smithfield;-33.85;150.93333;AU;11899
1089;Slacks Creek;-27.65;153.15;AU;10352
1090;Singleton;-32.56742;151.16603;AU;5076
1091;Shepparton;-36.38047;145.39867;AU;31148
1092;Seymour;-37.02655;145.13924;AU;6235
1093;Seven Hills;-33.78333;150.93333;AU;19196
1094;Sebastopol;-37.58532;143.83953;AU;9890
1095;Seaford;-38.1;145.13333;AU;16148
1096;Scoresby;-37.9;145.23333;AU;5958
1097;Scone;-32.05014;150.86893;AU;5613
1098;Sarina;-21.4191;149.21677;AU;5534
1099;Sandringham;-37.95218;145.01129;AU;10009
1100;Sale;-38.11095;147.06802;AU;13456
1101;Saint Kilda;-37.8676;144.98099;AU;20417
1102;Saint Ives;-33.72976;151.15977;AU;17036
1103;Saint Albans;-37.73333;144.8;AU;35091
1104;Rye;-38.38528;144.81221;AU;8121
1105;Ryde;-33.8188;151.1062;AU;26385
1106;Rydalmere;-33.81453;151.03751;AU;6571
1107;Rutherford;-32.71667;151.53333;AU;11788
1108;Rowville;-37.93333;145.23333;AU;33160
1109;Roseville;-33.78333;151.18333;AU;9908
1110;Rosebud;-38.35542;144.9068;AU;12871
1111;Rosanna;-37.73895;145.06735;AU;7697
1112;Rooty Hill;-33.76667;150.83333;AU;14821
1113;Roma;-26.56741;148.78751;AU;7105
1114;Rockhampton;-23.38032;150.50595;AU;61724
1115;Rockdale;-33.95;151.13333;AU;15436
1116;Riverstone;-33.68333;150.86667;AU;7191
1117;Ringwood North;-37.8;145.23333;AU;9565
1118;Ringwood East;-37.81667;145.25;AU;10347
1119;Ringwood;-37.81667;145.23333;AU;17242
1120;Richmond;-37.81819;145.00176;AU;27878
1121;Richmond;-33.59956;150.75142;AU;5630
1122;Rhodes;-33.82663;151.0881;AU;11828
1123;Revesby;-33.95;151.01667;AU;14056
1124;Reservoir;-37.71667;145.0;AU;50092
1125;Redlynch;-16.9254;145.69559;AU;9666
1126;Redland Bay;-27.6113;153.30022;AU;14626
1127;Red Hill;-20.31667;148.5;AU;5406
1128;Redfern;-33.89279;151.20415;AU;13052
1129;Raymond Terrace;-32.75952;151.7505;AU;12620
1130;Queanbeyan;-35.35493;149.232;AU;6296
1131;Quakers Hill;-33.73333;150.88333;AU;26904
1132;Pyrmont;-33.86985;151.19402;AU;13549
1133;Pymble;-33.74386;151.14188;AU;10932
1134;Preston;-37.75;145.01667;AU;32499
1135;Prahran;-37.85114;144.99318;AU;12823
1136;Potts Point;-33.86701;151.22586;AU;12168
1137;Port Melbourne;-37.83961;144.94228;AU;15817
1138;Port Macquarie;-31.43084;152.90894;AU;45692
1139;Portland;-38.3462;141.60257;AU;9429
1140;Port Kembla;-34.4818;150.9012;AU;5012
1141;Port Douglas;-16.48383;145.46725;AU;8237
1142;Point Vernon;-25.25727;152.81725;AU;5693
1143;Point Cook;-37.91482;144.75088;AU;49436
1144;Pimpama;-27.81667;153.3;AU;9396
1145;Petrie;-27.26667;152.98333;AU;8494
1146;Penshurst;-33.96667;151.08333;AU;12673
1147;Penrith;-33.75;150.7;AU;13343
1148;Pennant Hills;-33.73783;151.07216;AU;7199
1149;Pendle Hill;-33.80402;150.95543;AU;7150
1150;Pascoe Vale;-37.73333;144.93333;AU;16850
1151;Parkville;-37.78333;144.95;AU;9188
1152;Parkes;-33.1372;148.1759;AU;11274
1153;Parkdale;-37.99187;145.08128;AU;11514
1154;Palmwoods;-26.68584;152.96135;AU;5575
1155;Palm Beach;-28.11694;153.46584;AU;15205
1156;Pakenham;-38.07018;145.47411;AU;45895
1157;Oxley;-27.55;152.98333;AU;8344
1158;Ormond;-37.9;145.03333;AU;7711
1159;Ormiston;-27.51667;153.25;AU;5669
1160;Ormeau;-27.76791;153.2428;AU;14180
1161;Orange;-33.28397;149.10018;AU;38408
1162;Officer;-38.05916;145.40947;AU;7044
1163;Oatley;-33.98004;151.07201;AU;10301
1164;Oakleigh East;-37.9;145.11667;AU;6344
1165;Oakleigh;-37.89809;145.08837;AU;7822
1166;Nunawading;-37.82043;145.17308;AU;11645
1167;Nowra;-34.88422;150.60036;AU;9598
1168;North Sydney;-33.839;151.2072;AU;8055
1169;North Melbourne;-37.79798;144.94512;AU;15395
1170;Northmead;-33.78378;150.99858;AU;11042
1171;North Mackay;-21.12009;149.17941;AU;5742
1172;Fitzroy North;-37.78862;144.97885;AU;11999
1173;Northcote;-37.76667;145.0;AU;24115
1174;Normanhurst;-33.7237;151.09576;AU;5211
1175;Noosaville;-26.4;153.06667;AU;9811
1176;Noosa Heads;-26.39433;153.0901;AU;7041
1177;Noble Park;-37.96667;145.16667;AU;30921
1178;Newtown;-33.89835;151.17754;AU;14820
1179;Newport;-37.84427;144.88483;AU;12751
1180;Newport;-33.65639;151.31401;AU;9048
1181;New Norfolk;-42.78261;147.0587;AU;5366
1182;Newnham;-41.38969;147.11397;AU;6481
1183;Newcastle;-32.92953;151.7801;AU;308308
1184;Nerang;-27.98941;153.33633;AU;16739
1185;Nelson Bay;-32.72043;152.14398;AU;6096
1186;Narre Warren North;-37.98333;145.31667;AU;7583
1187;Narre Warren;-38.03333;145.3;AU;26389
1188;Narrabri;-30.32488;149.78266;AU;7866
1189;Narrabeen;-33.71277;151.29736;AU;8049
1190;Narara;-33.39593;151.33527;AU;7841
1191;Narangba;-27.20338;152.95923;AU;18217
1192;Naracoorte;-36.95785;140.7383;AU;5876
1193;Nambucca Heads;-30.64318;153.00884;AU;6529
1194;Nambucca;-30.63333;152.98333;AU;6137
1195;Nambour;-26.62613;152.95941;AU;11482
1196;Muswellbrook;-32.26118;150.89009;AU;12135
1197;Murwillumbah;-28.32732;153.39339;AU;7097
1198;Murrumbeena;-37.9;145.06667;AU;9767
1199;Mulgrave;-37.92845;145.17708;AU;17647
1200;Mudgeeraba;-28.08333;153.36667;AU;13466
1201;Mudgee;-32.59426;149.5871;AU;11035
1202;Mount Waverley;-37.87709;145.12939;AU;33149
1203;Mount Martha;-38.26667;145.01667;AU;17788
1204;Mount Gambier;-37.8318;140.77919;AU;25030
1205;Mount Evelyn;-37.78333;145.38333;AU;9467
1206;Mount Eliza;-38.18333;145.08333;AU;17358
1207;Mount Druitt;-33.76667;150.81667;AU;16682
1208;Mount Cotton;-27.63333;153.23333;AU;6729
1209;Mount Colah;-33.68333;151.11667;AU;6974
1210;Moss Vale;-34.55374;150.37115;AU;8430
1211;Mosman;-33.83902;151.23956;AU;27844
1212;Morwell;-38.23476;146.39499;AU;13620
1213;Mortdale;-33.96897;151.07231;AU;10315
1214;Mornington;-38.21792;145.03876;AU;23245
1215;Moree;-29.46278;149.84157;AU;9779
1216;Mordialloc;-38.0;145.08333;AU;8027
1217;Morayfield;-27.10876;152.94907;AU;21221
1218;South Morang;-37.65;145.1;AU;23874
1219;Mooroopna;-36.4;145.35;AU;7745
1220;Mooroolbark;-37.78247;145.31682;AU;21503
1221;Moorabbin;-37.94146;145.05779;AU;5824
1222;Moonee Ponds;-37.76667;144.91667;AU;14041
1223;Moonah;-42.84617;147.30228;AU;5311
1224;Mooloolaba;-26.68164;153.11925;AU;9502
1225;Montrose;-37.81667;145.35;AU;6595
1226;Montmorency;-37.71667;145.11667;AU;8670
1227;Mona Vale;-33.67757;151.30307;AU;10536
1228;Moe;-38.17828;146.26099;AU;8607
1229;Moama;-36.10413;144.7608;AU;6164
1230;Mittagong;-34.45002;150.44572;AU;5725
1231;Mitchelton;-27.41667;152.96667;AU;8387
1232;Mitcham;-37.81667;145.2;AU;15861
1233;Miranda;-34.03857;151.10005;AU;15111
1234;Minto;-34.03333;150.85;AU;12461
1235;Mill Park;-37.66667;145.06667;AU;29474
1236;Mildura;-34.18551;142.16251;AU;32936
1237;Merrylands;-33.83333;150.98333;AU;29508
1238;Mernda;-37.60075;145.09555;AU;16370
1239;Mentone;-37.98333;145.06667;AU;12620
1240;Menai;-34.01667;151.01667;AU;10199
1241;Melton South;-37.70773;144.57493;AU;11426
1242;Melton;-37.68339;144.58543;AU;7999
1243;Melbourne;-37.814;144.96332;AU;4246375
1244;Medowie;-32.7415;151.8676;AU;9301
1245;McKinnon;-37.91667;145.05;AU;5553
1246;Maudsland;-27.95;153.26667;AU;5468
1247;Matraville;-33.96344;151.23195;AU;9768
1248;Mascot;-33.92598;151.19347;AU;15985
1249;Maryborough;-37.04562;143.73923;AU;7830
1250;Maryborough;-25.54073;152.70493;AU;15479
1251;Marrickville;-33.90741;151.15546;AU;26140
1252;Maroubra;-33.95;151.23333;AU;30224
1253;Maribyrnong;-37.77241;144.88435;AU;12086
1254;Margate;-27.24761;153.09809;AU;7342
1255;Mareeba;-16.99096;145.42306;AU;11339
1256;Manly;-33.79798;151.28826;AU;16170
1257;Malvern;-37.86259;145.02811;AU;10143
1258;Malabar;-33.96216;151.24796;AU;5403
1259;Maitland;-32.73308;151.5574;AU;67132
1260;Maffra;-37.97132;146.98366;AU;5050
1261;Macleod;-37.73333;145.06667;AU;9606
1262;Mackay;-21.15345;149.16554;AU;74219
1263;Lysterfield;-37.93333;145.3;AU;6569
1264;Long Jetty;-33.35917;151.48834;AU;6399
1265;Loganlea;-27.67535;153.13472;AU;7296
1266;Loganholme;-27.68444;153.1864;AU;6222
1267;Liverpool;-33.91938;150.92588;AU;27545
1268;Lithgow;-33.4845;150.14903;AU;5125
1269;Lisarow;-33.38333;151.36667;AU;5036
1270;Lindisfarne;-42.84837;147.36192;AU;5992
1271;Lindfield;-33.78333;151.16667;AU;9616
1272;Lilydale;-37.75;145.35;AU;16209
1273;Lidcombe;-33.86436;151.0397;AU;19791
1274;Leumeah;-34.05;150.83333;AU;9767
1275;Leopold;-38.19001;144.46825;AU;12389
1276;Leongatha;-38.47607;145.94685;AU;5408
1277;Leichhardt;-33.88341;151.15625;AU;14373
1278;Leeton;-34.55105;146.40483;AU;8634
1279;Lawnton;-27.28333;152.98333;AU;5560
1280;Lavington;-36.03976;146.93958;AU;12334
1281;Launceston;-41.43876;147.13467;AU;106153
1282;Lara;-38.02388;144.40617;AU;15919
1283;Langwarrin;-38.16667;145.16667;AU;22146
1284;Lane Cove;-33.8157;151.16679;AU;10646
1285;Lalor;-37.66667;145.01667;AU;22413
1286;Lakemba;-33.91972;151.07592;AU;16921
1287;Lake Albert;-35.16667;147.38333;AU;5908
1288;Kyneton;-37.24444;144.45148;AU;6904
1289;Kyabram;-36.31335;145.05035;AU;7099
1290;Kurri Kurri;-32.81933;151.47908;AU;6048
1291;Kogarah;-33.9681;151.13564;AU;15705
1292;Kingston;-42.97638;147.30351;AU;10154
1293;Kingston;-27.66667;153.11667;AU;10518
1294;Kingscliff;-28.25983;153.57816;AU;7878
1295;Kingaroy;-26.53994;151.8373;AU;10064
1296;Kilsyth;-37.8;145.31667;AU;10646
1297;Kilmore;-37.29577;144.95252;AU;7865
1298;Kiama;-34.66828;150.85219;AU;6836
1299;Keysborough;-37.99116;145.17385;AU;25637
1300;Kew;-37.80639;145.03086;AU;24491
1301;Kensington;-33.92019;151.22241;AU;15021
1302;Kensington;-37.79188;144.93114;AU;9719
1303;Kennington;-36.77128;144.30298;AU;5545
1304;Kempsey;-31.07898;152.83093;AU;9522
1305;Kelso;-33.41667;149.6;AU;8798
1306;Keilor;-37.71667;144.83333;AU;5730
1307;Katoomba;-33.71977;150.30739;AU;8204
1308;Kangaroo Flat;-36.8;144.25;AU;10088
1309;Jindabyne;-36.41745;148.62254;AU;6547
1310;Jimboomba;-27.83118;153.02737;AU;12981
1311;Jannali;-34.01643;151.06065;AU;6078
1312;Irymple;-34.23537;142.17101;AU;5182
1313;Inverloch;-38.62659;145.7226;AU;5257
1314;Inverell;-29.77403;151.11166;AU;11609
1315;Ingleburn;-34.0;150.86667;AU;14994
1316;Hughesdale;-37.9;145.08333;AU;7473
1317;Horsham;-36.71131;142.19981;AU;14233
1318;Hornsby;-33.70244;151.09931;AU;22335
1319;Homebush;-33.86667;151.08333;AU;6787
1320;Holsworthy;-33.98333;150.96667;AU;5771
1321;Hobart;-42.87936;147.32941;AU;216656
1322;Highett;-37.95;145.05;AU;10344
1323;Helensburgh;-34.17836;150.99522;AU;6221
1324;Heidelberg West;-37.73922;145.04034;AU;5495
1325;Heidelberg;-37.75;145.06667;AU;6915
1326;Heathmont;-37.83333;145.25;AU;9517
1327;Heathcote;-34.0841;151.01305;AU;5935
1328;Healesville;-37.65395;145.51718;AU;7382
1329;Haymarket;-33.87868;151.20526;AU;9587
1330;Hawthorn South;-37.8329;145.0367;AU;21177
1331;Hawthorn;-37.81992;145.0358;AU;23051
1332;Hastings;-38.3;145.18333;AU;9449
1333;Harristown;-27.58333;151.93333;AU;8417
1334;Hampton Park;-38.03333;145.25;AU;25377
1335;Hampton;-37.95;145.0;AU;12482
1336;Hamilton;-37.74425;142.02202;AU;9720
1337;Hallam;-38.01667;145.26667;AU;10776
1338;Haberfield;-33.88296;151.14389;AU;6363
1339;Gympie;-26.18979;152.66499;AU;10805
1340;Gunnedah;-30.98065;150.25838;AU;9761
1341;Grovedale;-38.2;144.35;AU;13897
1342;Griffith;-34.28853;146.05093;AU;18154
1343;Greenvale;-37.63333;144.86667;AU;15338
1344;Greensborough;-37.70462;145.10302;AU;20407
1345;Greenbank;-27.71667;152.98333;AU;7563
1346;Granville;-33.8406;151.00748;AU;22889
1347;Grafton;-29.68104;152.93394;AU;10501
1348;Gracemere;-23.43792;150.45749;AU;11039
1349;Goulburn;-34.75155;149.72086;AU;22645
1350;Gorokan;-33.25764;151.5097;AU;8211
1351;Gordonvale;-17.09959;145.78038;AU;6754
1352;Gordon;-33.75535;151.15115;AU;7567
1353;Goonellabah;-28.81667;153.31667;AU;12781
1354;Goondiwindi;-28.54709;150.30546;AU;6577
1355;Goodna;-27.61046;152.89896;AU;10432
1356;Gold Coast;-28.00029;153.43088;AU;591473
1357;Glen Waverley;-37.87811;145.16476;AU;40238
1358;Glenroy;-37.7;144.93333;AU;22127
1359;Glenorchy;-42.83343;147.27593;AU;10647
1360;Glen Iris;-37.86667;145.06667;AU;24838
1361;Glen Innes;-29.73485;151.7385;AU;6093
1362;Glenhaven;-33.7;151.0;AU;6402
1363;Glenfield;-33.96667;150.9;AU;9538
1364;Glenferrie;-37.83333;145.05;AU;21177
1365;Glebe;-33.87884;151.18426;AU;11525
1366;Gladstone;-23.84852;151.25775;AU;30489
1367;Gisborne;-37.48858;144.59421;AU;8725
1368;Geelong West;-38.13888;144.34842;AU;6775
1369;Geelong;-38.14711;144.36069;AU;226034
1370;Gatton;-27.55873;152.27618;AU;7003
1371;Frankston East;-38.13333;145.13333;AU;34457
1372;Frankston;-38.14458;145.12291;AU;36239
1373;Forster;-32.18136;152.51715;AU;13660
1374;Forest Hill;-37.83333;145.18333;AU;10632
1375;Forbes;-33.38436;148.0076;AU;8481
1376;Footscray;-37.8;144.9;AU;16550
1377;Fitzroy;-37.79839;144.97833;AU;11267
1378;Fawkner;-37.71667;144.96667;AU;14019
1379;Fairfield;-33.86667;150.95;AU;17932
1380;Essendon;-37.74981;144.9109;AU;20310
1381;Epping;-37.65;145.03333;AU;32696
1382;Epping;-33.77271;151.08184;AU;23435
1383;Engadine;-34.06564;151.01266;AU;17141
1384;Emu Plains;-33.75;150.66667;AU;8395
1385;Emerald;-37.93167;145.44093;AU;5571
1386;Emerald;-23.52296;148.15784;AU;14536
1387;Eltham North;-37.7;145.15;AU;6712
1388;Eltham;-37.73333;145.15;AU;17829
1389;Elsternwick;-37.88639;145.0025;AU;10160
1390;Eight Mile Plains;-27.58333;153.1;AU;15364
1391;Edmonton;-17.01902;145.74443;AU;10652
1392;Edithvale;-38.03724;145.10974;AU;5683
1393;Echuca;-36.14057;144.75185;AU;13927
1394;Eastwood;-33.79176;151.08057;AU;17792
1395;East Maitland;-32.75;151.58333;AU;11562
1396;East Ballina;-28.85709;153.58736;AU;5587
1397;Earlwood;-33.9209;151.12506;AU;17592
1398;Eaglehawk;-36.71611;144.25049;AU;5513
1399;Eagleby;-27.68333;153.21667;AU;13198
1400;Dural;-33.68333;151.01667;AU;7493
1401;Dubbo;-32.24295;148.60484;AU;39863
1402;Drouin;-38.13658;145.85838;AU;11994
1403;Dromana;-38.33375;144.96458;AU;5651
1404;Doreen;-37.6;145.15;AU;20954
1405;Doonside;-33.76667;150.86667;AU;13356
1406;Donvale;-37.7891;145.17488;AU;12076
1407;Doncaster East;-37.78761;145.14888;AU;28016
1408;Doncaster;-37.78828;145.12373;AU;20728
1409;Dingley Village;-37.9827;145.1342;AU;10191
1410;Diamond Creek;-37.66667;145.15;AU;11475
1411;Devonport;-41.17695;146.35152;AU;13363
1412;Derrimut;-37.79238;144.76994;AU;8200
1413;Deniliquin;-35.53245;144.95364;AU;7793
1414;Deer Park;-37.76722;144.76657;AU;17980
1415;Deception Bay;-27.19354;153.02631;AU;19539
1416;Darlinghurst;-33.87939;151.21925;AU;12073
1417;Darley;-37.65807;144.44344;AU;8281
1418;Dapto;-34.50386;150.79416;AU;10568
1419;Dandenong;-37.98333;145.2;AU;30193
1420;Dalby;-27.18169;151.26205;AU;12650
1421;Croydon North;-37.76741;145.29073;AU;7653
1422;Croydon;-37.8;145.28333;AU;26502
1423;Croydon;-33.88333;151.11667;AU;10546
1424;Cronulla;-34.06251;151.14961;AU;17703
1425;Cranbourne;-38.11342;145.28326;AU;19825
1426;Craigieburn;-37.6;144.95;AU;50069
1427;Cowra;-33.83554;148.69663;AU;9996
1428;Corrimal;-34.37864;150.90356;AU;6424
1429;Corowa;-35.99704;146.38552;AU;5317
1430;Cornubia;-27.66667;153.21667;AU;7173
1431;Corio;-38.08333;144.38333;AU;15215
1432;Cootamundra;-34.64095;148.02838;AU;6618
1433;Coorparoo;-27.49325;153.05826;AU;15965
1434;Cooranbong;-33.07622;151.45409;AU;5377
1435;Cooma;-36.23517;149.12408;AU;6555
1436;Coolum Beach;-26.5283;153.08809;AU;9346
1437;Coolangatta;-28.16944;153.53471;AU;8245
1438;Coogee;-33.9205;151.25522;AU;15333
1439;Concord;-33.84722;151.10381;AU;14353
1440;Collingwood;-37.80253;144.98872;AU;8493
1441;Collaroy;-33.73205;151.30118;AU;7730
1442;Colac;-38.339;143.58489;AU;8809
1443;Coffs Harbour;-30.29626;153.11351;AU;26672
1444;Coburg;-37.75;144.96667;AU;25846
1445;Cobram;-35.92069;145.64066;AU;5802
1446;Clyde North;-38.11667;145.33333;AU;8110
1447;Clifton Springs;-38.1567;144.5551;AU;7264
1448;Clifton Hill;-37.79798;144.99533;AU;5790
1449;Cleveland;-27.52677;153.26516;AU;14541
1450;Clayton South;-37.93333;145.11667;AU;12574
1451;Clayton;-37.91667;145.11667;AU;20130
1452;Clarinda;-37.94066;145.10238;AU;7461
1453;Claremont;-42.78333;147.25;AU;7629
1454;Wollongong;-34.424;150.89345;AU;292190
1455;Chipping Norton;-33.91801;150.95927;AU;8981
1456;Chippendale;-33.88673;151.19745;AU;8936
1457;Chinchilla;-26.73787;150.6297;AU;7347
1458;Chelsea Heights;-38.03333;145.13333;AU;5214
1459;Chelsea;-38.05;145.11667;AU;7630
1460;Chatswood;-33.8;151.18333;AU;25140
1461;Charters Towers;-20.07671;146.26353;AU;9573
1462;Charlestown;-32.96828;151.69318;AU;11725
1463;Cessnock;-32.83211;151.35623;AU;15076
1464;Caulfield North;-37.8739;145.02485;AU;14903
1465;Caulfield;-37.88251;145.02288;AU;5731
1466;Castlemaine;-37.06709;144.21684;AU;6692
1467;Castle Hill;-33.73333;151.0;AU;39284
1468;Casino;-28.85819;153.04748;AU;10863
1469;Carrum Downs;-38.09968;145.17248;AU;20444
1470;Carnegie;-37.89359;145.05534;AU;17121
1471;Carlton North;-37.78818;144.97014;AU;6166
1472;Carlton;-37.8;144.96667;AU;18829
1473;Carlingford;-33.78269;151.04888;AU;24131
1474;Caringbah;-34.03534;151.12468;AU;11830
1475;Capalaba;-27.54333;153.20287;AU;17027
1476;Cannonvale;-20.27681;148.69759;AU;6107
1477;Canberra;-35.28346;149.12807;AU;367752
1478;Camperdown;-33.88965;151.17642;AU;11336
1479;Campbelltown;-34.06667;150.81667;AU;13193
1480;Campbellfield;-37.66386;144.95953;AU;5034
1481;Campbell;-35.28907;149.15382;AU;5050
1482;Camberwell;-37.84205;145.0694;AU;21744
1483;Calliope;-24.00705;151.20033;AU;5060
1484;Cairns;-16.92366;145.76613;AU;153075
1485;Caboolture;-27.08465;152.9511;AU;26341
1486;Byron Bay;-28.64989;153.61246;AU;6375
1487;Burwood East;-37.85;145.15;AU;10125
1488;Burwood;-33.88333;151.1;AU;15935
1489;Burpengary;-27.15746;152.95758;AU;13779
1490;Burnie;-41.05584;145.90375;AU;19972
1491;Burleigh Heads;-28.1;153.45;AU;10978
1492;Bundamba;-27.60947;152.81133;AU;6367
1493;Bundaberg;-24.86621;152.3479;AU;70826
1494;Bulli;-34.33834;150.91347;AU;6025
1495;Bulleen;-37.76667;145.08333;AU;10756
1496;Buderim;-26.68443;153.05705;AU;28774
1497;Brunswick West;-37.76461;144.94383;AU;13880
1498;Brunswick East;-37.77255;144.97241;AU;11315
1499;Brunswick;-37.76667;144.96667;AU;24176
1500;Broken Hill;-31.9652;141.4512;AU;18027
1501;Broadmeadows;-37.68015;144.91877;AU;12009
1502;Broadbeach;-28.02782;153.43343;AU;8738
1503;Brisbane;-27.46794;153.02809;AU;2189878
1504;Brighton;-37.90561;145.00279;AU;22742
1505;Brighton;-27.29582;153.05721;AU;9361
1506;Box Hill;-37.81887;145.12545;AU;11792
1507;Bowral;-34.4775;150.4204;AU;10240
1508;Bowen;-20.01367;148.24754;AU;11417
1509;Botany;-33.94599;151.19591;AU;10732
1510;Boronia;-37.86667;145.28333;AU;21857
1511;Boondall;-27.35317;153.06092;AU;9181
1512;Bongaree;-27.08367;153.15942;AU;7010
1513;Bomaderry;-34.84967;150.61093;AU;6499
1514;Bli Bli;-26.61724;153.03665;AU;7650
1515;Blaxland;-33.75;150.6;AU;7288
1516;Blackwater;-23.58351;148.87912;AU;6089
1517;Blacktown;-33.76667;150.91667;AU;46942
1518;Blackmans Bay;-43.00311;147.31694;AU;6890
1519;Birkdale;-27.48333;153.21667;AU;14182
1520;Biloela;-24.39589;150.51504;AU;6108
1521;Bexley;-33.95;151.11667;AU;19664
1522;Berwick;-38.03333;145.35;AU;47074
1523;Berkeley Vale;-33.35;151.43333;AU;8198
1524;Berkeley;-34.48333;150.85;AU;7559
1525;Bentleigh East;-37.91928;145.05301;AU;27368
1526;Bentleigh;-37.91806;145.03544;AU;15892
1527;Benowa;-28.0077;153.38583;AU;9015
1528;Bendigo;-36.75818;144.28024;AU;100617
1529;Benalla;-36.55113;145.98425;AU;10072
1530;Belrose;-33.73954;151.21033;AU;8714
1531;Belmont;-38.17485;144.34276;AU;13767
1532;Belmont;-33.0274;151.6601;AU;7079
1533;Belconnen;-35.23798;149.06627;AU;6621
1534;Beerwah;-26.85881;152.96144;AU;6711
1535;Beenleigh;-27.71137;153.2029;AU;8171
1536;Beaumaris;-37.98534;145.03361;AU;12959
1537;Beaudesert;-27.98691;152.99657;AU;6364
1538;Beaconsfield;-38.05;145.36667;AU;6614
1539;Bayswater;-37.85;145.26667;AU;11599
1540;Baulkham Hills;-33.75881;150.99292;AU;36792
1541;Bathurst;-33.41665;149.5806;AU;33110
1542;Bass Hill;-33.89863;150.99541;AU;9229
1543;Bargara;-24.81476;152.46257;AU;8170
1544;Banora Point;-28.21298;153.53634;AU;15868
1545;Bannockburn;-38.04894;144.16882;AU;5203
1546;Bankstown;-33.91667;151.03333;AU;32399
1547;Balwyn;-37.80914;145.0789;AU;12944
1548;Balmain;-33.85481;151.1833;AU;10305
1549;Ballina;-28.86414;153.56541;AU;8911
1550;Ballarat East;-37.56667;143.86667;AU;5470
1551;Ballarat;-37.56622;143.84957;AU;97937
1552;Balgownie;-34.39505;150.88051;AU;5427
1553;Balgowlah;-33.79494;151.2572;AU;7768
1554;Balaclava;-37.86667;145.0;AU;5383
1555;Bairnsdale;-37.82289;147.61041;AU;7554
1556;Bacchus Marsh;-37.67268;144.43829;AU;6281
1557;Ayr;-19.57393;147.40666;AU;8818
1558;Auburn;-33.85;151.03333;AU;37245
1559;Atherton;-17.26864;145.47522;AU;7576
1560;Aspley;-27.36667;153.01667;AU;12000
1561;Aspendale;-38.02913;145.10266;AU;6724
1562;Ashgrove;-27.44552;152.992;AU;12726
1563;Ashfield;-33.88834;151.12274;AU;23749
1564;Ashburton;-37.86667;145.08333;AU;7625
1565;Ascot Vale;-37.77988;144.92276;AU;14587
1566;Artarmon;-33.81667;151.18333;AU;9392
1567;Armidale;-30.50123;151.66553;AU;23741
1568;Armadale;-37.85544;145.02052;AU;8836
1569;Ararat;-37.28542;142.92728;AU;8275
1570;Annandale;-33.88333;151.16667;AU;9259
1571;Andergrove;-21.08333;149.18333;AU;9097
1572;Altona;-37.86964;144.83036;AU;10563
1573;Alstonville;-28.84186;153.44022;AU;5662
1574;Alfredton;-37.56667;143.81667;AU;9013
1575;Alexandria;-33.89989;151.19951;AU;8075
1576;Albury;-36.07482;146.92401;AU;5323
1577;Albion Park;-34.57132;150.77568;AU;13039
1578;Albany Creek;-27.35364;152.96848;AU;15532
1579;Acacia Ridge;-27.58333;153.03333;AU;7377
1580;Aberglasslyn;-32.7;151.53333;AU;5301
1581;Abbotsford;-33.84889;151.12801;AU;5316
1582;Abbotsford;-37.8;145.0;AU;8087
1583;New Lambton;-32.92838;151.7085;AU;10016
1584;Gymea;-34.03637;151.08528;AU;7489
1585;Kirrawee;-34.03831;151.06903;AU;9139
1586;Gymea Bay;-34.05209;151.08795;AU;6725
1587;Bangor;-34.01667;151.03333;AU;5471
1588;Sylvania;-34.01242;151.09718;AU;10422
1589;Oyster Bay;-34.00407;151.07588;AU;5379
1590;Brighton-Le-Sands;-33.96009;151.1511;AU;8515
1591;Sans Souci;-33.9899;151.13334;AU;10249
1592;Blakehurst;-33.99152;151.10876;AU;6141
1593;Illawong;-34.0;151.03333;AU;7206
1594;Lugarno;-33.98267;151.04184;AU;5521
1595;Peakhurst;-33.96288;151.05161;AU;10450
1596;Padstow;-33.95687;151.03191;AU;13226
1597;Riverwood;-33.94725;151.04973;AU;12059
1598;New Town;-42.85758;147.30869;AU;6004
1599;Sandy Bay;-42.89449;147.32439;AU;11727
1600;Fairy Meadow;-34.39303;150.89275;AU;7283
1601;Figtree;-34.43556;150.85833;AU;11376
1602;Norlane;-38.10139;144.35417;AU;8216
1603;Hamilton;-27.43896;153.06287;AU;7144
1604;Bulimba;-27.4499;153.05766;AU;6612
1605;New Farm;-27.46777;153.04834;AU;12256
1606;Norman Park;-27.47916;153.0625;AU;6118
1607;East Brisbane;-27.48099;153.04401;AU;5735
1608;South Brisbane;-27.48034;153.02049;AU;8658
1609;Maroochydore;-26.66008;153.09953;AU;18342
1610;Scarborough;-27.20118;153.10939;AU;8605
1611;Bonbeach;-38.06528;145.12278;AU;6309
1612;Laverton;-37.86201;144.76979;AU;5001
1613;Cheltenham;-37.96944;145.04806;AU;21837
1614;Bellevue Hill;-33.87899;151.25101;AU;10599
1615;Rose Bay;-33.86877;151.2706;AU;9915
1616;Paddington;-33.88419;151.23151;AU;12686
1617;Ultimo;-33.87722;151.1972;AU;8857
1618;Lilyfield;-33.87499;151.1653;AU;7594
1619;Drummoyne;-33.85237;151.15491;AU;11718
1620;Greenwich;-33.83954;151.183;AU;5860
1621;Hunters Hill;-33.83432;151.1459;AU;9357
1622;Cammeray;-33.82132;151.21609;AU;6854
1623;Northbridge;-33.81313;151.21728;AU;6183
1624;Seaforth;-33.80145;151.23981;AU;6998
1625;Cremorne;-33.82679;151.22633;AU;11069
1626;Neutral Bay;-33.83784;151.2175;AU;10250
1627;Randwick;-33.91439;151.24895;AU;30532
1628;Bronte;-33.90198;151.26556;AU;6553
1629;Bondi;-33.89429;151.26444;AU;9891
1630;Gladesville;-33.83333;151.13333;AU;11673
1631;Forestville;-33.76667;151.20833;AU;8185
1632;Dee Why;-33.7511;151.28886;AU;21145
1633;Umina Beach;-33.52314;151.31325;AU;16413
1634;Flinders;-34.58333;150.85516;AU;6558
1635;Airport West;-37.7247;144.88126;AU;7452
1636;Niddrie;-37.7375;144.89212;AU;5443
1637;Gladstone Park;-37.68742;144.88675;AU;8260
1638;Palmerston;-12.48602;130.9833;AU;25000
1639;Hervey Bay;-25.28762;152.76936;AU;52230
1640;Moranbah;-22.00163;148.04661;AU;12068
1641;Sydney Central Business District;-33.86482;151.20773;AU;25654
1642;Kaleen;-35.21814;149.10516;AU;7092
1643;Karratha;-20.73765;116.84629;AU;11728
1644;Biggera Waters;-27.93239;153.40021;AU;8887
1645;Enfield;-34.8526;138.60255;AU;5289
1646;Hillarys;-31.80698;115.74045;AU;10603
1647;Kingsford;-33.92399;151.22749;AU;15338
1648;Klemzig;-34.87928;138.63562;AU;6018
1649;Maidstone;-37.78035;144.87353;AU;8956
1650;Woollahra;-33.8878;151.23681;AU;7278
1651;Wolli Creek;-33.93133;151.15222;AU;6614
1652;Corlette;-32.72014;152.10846;AU;5147
1653;Howrah;-42.88728;147.40554;AU;8317
1654;Springfield Lakes;-27.66757;152.92488;AU;15081
1655;North Narrabeen;-33.70935;151.29607;AU;5855
1656;Joondalup;-31.74445;115.76835;AU;9302
1657;Como;-31.99119;115.86336;AU;13965
1658;Arncliffe;-33.93627;151.14819;AU;10523
1659;East Lismore;-28.82591;153.2888;AU;5029
1660;Mindarie;-31.68932;115.70698;AU;7326
1661;Clarkson;-31.68282;115.7247;AU;12599
1662;Kinross;-31.71868;115.73839;AU;6736
1663;Currambine;-31.73306;115.74766;AU;6771
1664;Iluka;-31.73554;115.73058;AU;5168
1665;Heathridge;-31.76244;115.75895;AU;6534
1666;Paradise Point;-27.88663;153.3933;AU;6488
1667;Girraween;-33.799;150.943;AU;5537
1668;Freshwater;-33.77867;151.28569;AU;8584
1669;Kelvin Grove;-27.44819;153.01337;AU;7766
1670;Taringa;-27.49061;152.97861;AU;8145
1671;Chapel Hill;-27.50264;152.95012;AU;9866
1672;Kenmore;-27.50759;152.93879;AU;8764
1673;Inala;-27.59715;152.97432;AU;14840
1674;Mount Lawley;-31.93439;115.8716;AU;11030
1675;Main Beach;-27.97879;153.4266;AU;5645
1676;Paradise;-34.87361;138.66896;AU;6699
1677;Athelstone;-34.87019;138.6999;AU;8992
1678;Nundah;-27.40252;153.06165;AU;11823
1679;Banyo;-27.38236;153.07903;AU;5717
1680;Zillmere;-27.35591;153.04453;AU;8860
1681;Taigum;-27.34265;153.04444;AU;6473
1682;Carseldine;-27.34753;153.02307;AU;9417
1683;Bracken Ridge;-27.3171;153.03097;AU;16701
1684;Kallangur;-27.25204;152.99226;AU;20222
1685;Mango Hill;-27.24349;153.02384;AU;8271
1686;North Lakes;-27.22426;153.02075;AU;21260
1687;West End;-27.47923;153.0096;AU;9269
1688;Highgate Hill;-27.48912;153.01878;AU;6083
1689;Woolloongabba;-27.48855;153.03655;AU;6321
1690;Auchenflower;-27.47443;152.99213;AU;6196
1691;Indooroopilly;-27.50302;152.97518;AU;11987
1692;Macgregor;-27.5649;153.0665;AU;5742
1693;Fortitude Valley;-27.45706;153.03178;AU;7276
1694;Windsor;-27.43631;153.02882;AU;6983
1695;Clayfield;-27.41894;153.05818;AU;10323
1696;Chermside;-27.38472;153.03062;AU;10136
1697;Ferny Grove;-27.4008;152.93475;AU;5677
1698;Keperra;-27.41376;152.94703;AU;6735
1699;The Gap;-27.44187;152.93861;AU;16371
1700;Paddington;-27.45939;152.99509;AU;8315
1701;Fitzgibbon;-27.33971;153.02921;AU;5572
1702;Bridgeman Downs;-27.35538;152.99432;AU;8277
1703;Canterbury;-33.91192;151.11862;AU;7200
1704;Fairfield West;-33.8667;150.917;AU;11456
1705;Willoughby;-33.80493;151.1993;AU;6451
1706;Tamborine Mountain;-27.96954;153.19937;AU;7675
1707;East Melbourne;-37.81667;144.9879;AU;6196
1708;Salisbury East;-34.79052;138.6545;AU;8772
1709;North Ryde;-33.79677;151.12436;AU;10827
1710;Stirling;-31.88343;115.8099;AU;9625
1711;Caroline Springs;-37.74124;144.73631;AU;24077
1712;Hoppers Crossing;-37.88264;144.7003;AU;38178
1713;West Melbourne;-37.81014;144.95;AU;5588
1714;Rouse Hill;-33.68207;150.9154;AU;7877
1715;Logan City;-27.63917;153.10944;AU;282673
1716;Carindale;-27.50578;153.10236;AU;15418
1717;Parramatta;-33.8178;151.00348;AU;26876
1718;Ferntree Gully;-37.88461;145.29539;AU;26019
1719;Kewarra Beach;-16.78219;145.68455;AU;5691
1720;Shell Cove;-34.58994;150.86203;AU;5497
1721;Dawesville;-32.63229;115.62904;AU;5473
1722;Phillip Island;-38.48349;145.23102;AU;7071
1723;Springwood;-27.61183;153.12899;AU;9141
1724;Adelaide Hills;-34.91119;138.70735;AU;60394
1725;Canning Vale;-32.05799;115.91814;AU;32593
1726;Varsity Lakes;-28.0894;153.4122;AU;14753
1727;Roselands;-33.93317;151.0732;AU;11528
1728;Oxenford;-27.89033;153.31309;AU;11797
1729;Toormina;-30.35384;153.08843;AU;6210
1730;Glenmore Park;-33.79068;150.6693;AU;22863
1731;Southbank;-37.8228;144.96434;AU;22397
1732;St Kilda East;-37.86594;145.00018;AU;12983
1733;Golden Beach;-26.82177;153.11972;AU;6093
1734;Sanctuary Point;-35.10361;150.62667;AU;7020
1735;Docklands;-37.8149;144.95052;AU;12486
1736;Mermaid Beach;-28.04411;153.43472;AU;7410
1737;Helensvale;-27.91828;153.33275;AU;16839
1738;Mount Annan;-34.05287;150.75984;AU;11584
1739;Miami;-28.07173;153.44158;AU;7162
1740;Melton West;-37.67852;144.56883;AU;17477
1741;Brookfield;-37.7008;144.56025;AU;9145
1742;Kurunjang;-37.67587;144.5969;AU;9997
1743;Ashwood;-37.86659;145.10553;AU;6778
1744;Elwood;-37.88214;144.98215;AU;15122
1745;Burwood;-37.84978;145.11901;AU;14898
1746;Box Hill South;-37.83236;145.12098;AU;8300
1747;Blackburn;-37.81901;145.15326;AU;13703
1748;Canterbury;-37.8247;145.08476;AU;7926
1749;Hawthorn East;-37.82484;145.0464;AU;14097
1750;Kew East;-37.79758;145.05378;AU;6496
1751;Balwyn North;-37.79086;145.09386;AU;20015
1752;Mont Albert North;-37.80043;145.10828;AU;5407
1753;Box Hill North;-37.80266;145.12656;AU;11703
1754;Blackburn North;-37.80931;145.1518;AU;7328
1755;Blackburn South;-37.83975;145.15549;AU;10616
1756;Chadstone;-37.88766;145.09519;AU;8579
1757;Malvern East;-37.87397;145.04253;AU;21282
1758;Oakleigh South;-37.92416;145.09146;AU;9182
1759;Caulfield South;-37.89562;145.02597;AU;11630
1760;Brighton East;-37.90232;145.01734;AU;15644
1761;Black Rock;-37.97357;145.01636;AU;5952
1762;Aspendale Gardens;-38.02277;145.11798;AU;6420
1763;Brassall;-27.59753;152.74755;AU;10741
1764;Raceview;-27.63472;152.77519;AU;9601
1765;Flinders View;-27.65046;152.77451;AU;5719
1766;Redbank Plains;-27.64613;152.85965;AU;19094
1767;Collingwood Park;-27.61282;152.86008;AU;7022
1768;Clontarf;-27.25341;153.07835;AU;8205
1769;Kippa-Ring;-27.22586;153.0835;AU;9680
1770;Rothwell;-27.21433;153.04676;AU;7100
1771;Labrador;-27.94402;153.39815;AU;18326
1772;Ballarat Central;-37.56206;143.85082;AU;5540
1773;Delacombe;-37.58911;143.81472;AU;6191
1774;St Albans;-37.74496;144.80049;AU;37629
1775;Rozelle;-33.86141;151.1705;AU;8542
1776;St Leonards;-33.82344;151.19836;AU;6343
1777;Eleebana;-32.9896;151.63642;AU;5548
1778;Summer Hill;-33.89146;151.13825;AU;7287
1779;Bushland Beach;-19.19134;146.67682;AU;5990
1780;Highfields;-27.46343;151.95386;AU;7922
1781;Tannum Sands;-23.94749;151.36749;AU;5192
1782;Sippy Downs;-26.71793;153.05475;AU;10167
1783;Sorrento;-31.82533;115.75248;AU;7148
1784;North Perth;-31.92724;115.85276;AU;8504
1785;West Perth;-31.94896;115.84199;AU;5776
1786;Altona North;-37.83487;144.84735;AU;12074
1787;Balcatta;-31.87501;115.82839;AU;10192
1788;Belmont;-31.9435;115.9255;AU;6799
1789;North Parramatta;-33.79351;151.00124;AU;13394
1790;Bateau Bay;-33.38334;151.46671;AU;11905
1791;Hope Island;-27.87036;153.35164;AU;11154
1792;Howard Springs;-12.49576;131.04446;AU;6852
1793;Lake Munmorah;-33.19716;151.5824;AU;5128
1794;Lennox Head;-28.79131;153.59201;AU;6315
1795;Ocean Shores;-28.5093;153.5376;AU;5145
1796;East Perth;-31.95872;115.87109;AU;11549
1797;Doveton;-37.99346;145.23891;AU;9291
1798;Endeavour Hills;-37.97695;145.25866;AU;24116
1799;Sefton;-33.88773;151.01053;AU;5757
1800;Moorebank;-33.94372;150.95657;AU;9621
1801;Thurgoona;-36.03626;146.99609;AU;8394
1802;Glenfield Park;-35.13725;147.33285;AU;5122
1803;Adamstown Heights;-32.94906;151.71009;AU;5215
1804;Hocking;-31.77012;115.81832;AU;5783
1805;Shailer Park;-27.6498;153.17753;AU;11517
1806;Blue Haven;-33.21106;151.50351;AU;6313
1807;Bonnyrigg Heights;-33.89117;150.86994;AU;7300
1808;Bossley Park;-33.86184;150.8841;AU;14476
1809;Kellyville;-33.71028;150.95095;AU;27676
1810;Tapping;-31.71947;115.79559;AU;9243
1811;Seabrook;-37.88092;144.75866;AU;5072
1812;Canley Vale;-33.88657;150.94802;AU;10162
1813;Cromer;-33.7312;151.26788;AU;7515
1814;St Helens Park;-34.10474;150.81368;AU;6553
1815;Winmalee;-33.67847;150.61213;AU;6057
1816;Horsley;-34.48763;150.77799;AU;8089
1817;Erskine Park;-33.81301;150.79773;AU;6393
1818;Craigmore;-34.70064;138.70956;AU;10745
1819;Frenchs Forest;-33.74821;151.22322;AU;13278
1820;Harrington Park;-34.02405;150.73501;AU;10584
1821;Kings Park;-37.73397;144.77766;AU;8126
1822;Maryland;-32.87888;151.66143;AU;7502
1823;Taylors Lakes;-37.69863;144.78631;AU;15422
1824;Kosciuszko National Park;-36.26436;148.48179;AU;7891
1825;Macquarie Park;-33.78105;151.12757;AU;9054
1826;Centenary Heights;-27.58684;151.96249;AU;5980
1827;Calwell;-35.44042;149.10707;AU;5600
1828;City;-35.28125;149.12927;AU;5417
1829;Cherrybrook;-33.72197;151.04607;AU;18588
1830;Lyneham;-35.2398;149.13074;AU;5085
1831;Woodcroft;-35.10236;138.56292;AU;10944
1832;Daisy Hill;-27.63026;153.15784;AU;6558
1833;Pooraka;-34.82471;138.62637;AU;7158
1834;Naremburn;-33.81698;151.20079;AU;5772
1835;Woodvale;-31.78928;115.79676;AU;9116
1836;Plumpton;-33.75184;150.83686;AU;9208
1837;North Rocks;-33.77223;151.01718;AU;7899
1838;Roxburgh Park;-37.62581;144.92555;AU;21742
1839;Underwood;-27.60885;153.1113;AU;6285
1840;Mitchell Park;-35.01031;138.56266;AU;5384
1841;Prestons;-33.94185;150.8717;AU;15312
1842;Reedy Creek;-28.11243;153.39638;AU;6583
1843;Warwick Farm;-33.91291;150.93701;AU;5864
1844;Warriewood;-33.68857;151.29534;AU;7265
1845;Warilla;-34.55185;150.85831;AU;6377
1846;Beeliar;-32.13339;115.80637;AU;7293
1847;Winston Hills;-33.77645;150.98051;AU;11572
1848;Wetherill Park;-33.84277;150.90061;AU;6104
1849;Southside;-26.20997;152.64719;AU;5595
1850;Whalan;-33.75697;150.80402;AU;5913
1851;Edensor Park;-33.87971;150.87778;AU;9739
1852;Avondale Heights;-37.76155;144.86261;AU;11539
1853;Lynbrook;-38.05588;145.25615;AU;8482
1854;Wentworth Point;-33.8308;151.07441;AU;6937
1855;Norman Gardens;-23.33044;150.52747;AU;9980
1856;Ivanhoe;-37.76903;145.04308;AU;12175
1857;Woongarrah;-33.24134;151.47563;AU;5147
1858;Kialla;-36.44729;145.41422;AU;6608
1859;Davoren Park;-34.69063;138.66862;AU;6434
1860;Banksia Grove;-31.69615;115.80501;AU;9180
1861;Merewether;-32.94801;151.74325;AU;10557
1862;Magill;-34.90911;138.67498;AU;8690
1863;Wyndham Vale;-37.89138;144.62368;AU;23093
1864;Ballajura;-31.84062;115.89549;AU;18408
1865;Wynn Vale;-34.79942;138.68714;AU;7610
1866;Noranda;-31.87333;115.89901;AU;7853
1867;Piara Waters;-32.13344;115.91634;AU;8892
1868;Willetton;-32.05251;115.88782;AU;17887
1869;Merriwa;-31.66494;115.71273;AU;5317
1870;Green Valley;-33.90292;150.86713;AU;12482
1871;Teneriffe;-27.45587;153.04696;AU;5067
1872;Kooringal;-35.14069;147.3768;AU;6972
1873;Glenwood;-33.73333;150.93284;AU;16040
1874;Highbury;-34.85287;138.6975;AU;6432
1875;Highland Park;-28.01392;153.33312;AU;6436
1876;Petersham;-33.8946;151.15495;AU;8040
1877;The Range;-23.392;150.49624;AU;5561
1878;Oakhurst;-33.73883;150.83837;AU;6978
1879;Manoora;-16.91706;145.73665;AU;6089
1880;Raby;-34.01846;150.81764;AU;5885
1881;St Andrews;-34.02243;150.82958;AU;5688
1882;Carramar;-31.69023;115.77159;AU;7002
1883;Newborough;-38.17171;146.29264;AU;6601
1884;Para Hills;-34.8121;138.65802;AU;6468
1885;O'Connor;-35.25645;149.11248;AU;5450
1886;Andrews Farm;-34.67632;138.66197;AU;7957
1887;Boronia Heights;-27.68855;153.01959;AU;7781
1888;Merrimac;-28.05085;153.37307;AU;7005
1889;Molendinar;-27.97409;153.36069;AU;6324
1890;Douglas;-19.32394;146.75234;AU;8522
1891;Rostrevor;-34.89386;138.69183;AU;7649
1892;Alexander Heights;-31.82758;115.86501;AU;7841
1893;Carlisle;-31.97945;115.91808;AU;6296
1894;Atwell;-32.14346;115.86528;AU;8926
1895;Aveley;-31.78132;115.98959;AU;9952
1896;Hillcrest;-27.66857;153.02614;AU;5603
1897;Mount Warren Park;-27.73109;153.20549;AU;5690
1898;Balga;-31.85497;115.83986;AU;12440
1899;Greenwood;-31.82723;115.80247;AU;9338
1900;Dallas;-37.67083;144.93542;AU;6819
1901;Leeming;-32.07511;115.86613;AU;10476
1902;Delahey;-37.7198;144.77732;AU;8287
1903;Parkwood;-27.95461;153.36304;AU;8656
1904;Munno Para West;-34.66464;138.68066;AU;5823
1905;Wilson;-32.02058;115.91181;AU;6288
1906;Wishart;-27.55448;153.10107;AU;10474
1907;Butler;-31.64298;115.70431;AU;13011
1908;South Hedland;-20.40655;118.60069;AU;10380
1909;Darch;-31.81255;115.8458;AU;6969
1910;Riverside;-41.42105;147.05086;AU;6303
1911;Annandale;-19.31503;146.79069;AU;8402
1912;Kambah;-35.38624;149.05804;AU;14539
1913;Watson;-35.23815;149.15271;AU;5849
1914;Queens Park;-32.00314;115.94621;AU;6520
1915;Edens Landing;-27.7027;153.16943;AU;5042
1916;Redwood Park;-34.81155;138.70695;AU;5230
1917;North Haven;-34.78825;138.49162;AU;5457
1918;Innaloo;-31.89272;115.79508;AU;7999
1919;Cannon Hill;-27.47237;153.09475;AU;5481
1920;Carina Heights;-27.50721;153.09126;AU;6725
1921;Madeley;-31.8111;115.82814;AU;5946
1922;Booragoon;-32.03945;115.83369;AU;5404
1923;Christie Downs;-35.12999;138.49633;AU;5227
1924;Allawah;-33.97257;151.1144;AU;5645
1925;Doubleview;-31.89627;115.78155;AU;8160
1926;Ambarvale;-34.08942;150.79656;AU;7333
1927;Adamstown;-32.93824;151.72541;AU;5904
1928;Bonnyrigg;-33.89357;150.88908;AU;8697
1929;Seville Grove;-32.13645;115.98905;AU;10083
1930;Beacon Hill;-33.7528;151.25857;AU;7308
1931;Belmore;-33.91901;151.08935;AU;12596
1932;Beverly Hills;-33.94799;151.07979;AU;10090
1933;Murrumba Downs;-27.26733;153.01053;AU;10481
1934;Blakeview;-34.67566;138.7101;AU;7043
1935;Carrara;-28.02151;153.36635;AU;11970
1936;North Ward;-19.24994;146.81477;AU;5541
1937;Cabramatta;-33.89743;150.93446;AU;21634
1938;Everton Hills;-27.38909;152.97126;AU;5833
1939;Cameron Park;-32.90701;151.60528;AU;7819
1940;Elanora;-28.13577;153.44931;AU;12059
1941;Meadow Springs;-32.49718;115.75334;AU;7873
1942;Campsie;-33.9125;151.10279;AU;24487
1943;Canley Heights;-33.88262;150.92408;AU;10936
1944;Arundel;-27.93768;153.36302;AU;10085
1945;Warradale;-34.99717;138.53155;AU;5096
1946;Casula;-33.95222;150.89949;AU;15695
1947;Bella Vista;-33.74127;150.95456;AU;8056
1948;Cecil Hills;-33.88917;150.85137;AU;6924
1949;Beechboro;-31.86515;115.93661;AU;8896
1950;Chester Hill;-33.87896;150.99945;AU;12765
1951;Knoxfield;-37.88978;145.24962;AU;7254
1952;Ashmore;-27.98883;153.37647;AU;11902
1953;Colyton;-33.78283;150.79679;AU;8285
1954;Banksia Beach;-27.04027;153.1439;AU;5915
1955;Cranebrook;-33.7061;150.7094;AU;15649
1956;Hebersham;-33.74582;150.82385;AU;5660
1957;Bligh Park;-33.63985;150.80248;AU;6322
1958;Eagle Vale;-34.03747;150.8136;AU;5779
1959;Little Mountain;-26.78436;153.09218;AU;9967
1960;Bardon;-27.461;152.9792;AU;9231
1961;Edgeworth;-32.92508;151.61612;AU;6142
1962;Wakerley;-27.483;153.15589;AU;8325
1963;Elizabeth Bay;-33.87181;151.22706;AU;5270
1964;Erskineville;-33.90254;151.18579;AU;7856
1965;Ainslie;-35.26255;149.1437;AU;5067
1966;Five Dock;-33.8674;151.12905;AU;9218
1967;Eastlakes;-33.93196;151.21214;AU;6884
1968;Holland Park West;-27.52625;153.06046;AU;6266
1969;Glendenning;-33.7483;150.85411;AU;5131
1970;Greenacre;-33.90034;151.05563;AU;24361
1971;Greenfield Park;-33.87461;150.89189;AU;5078
1972;Greystanes;-33.82346;150.94607;AU;22591
1973;Newtown;-27.55602;151.93255;AU;9493
1974;Ellenbrook;-31.76737;115.96936;AU;22209
1975;Jerrabomberra;-35.38441;149.20248;AU;9240
1976;Alderley;-27.42553;153.00102;AU;5918
1977;Kanahooka;-34.4916;150.80817;AU;5417
1978;Greenfields;-32.52429;115.76315;AU;9620
1979;Hamilton Hill;-32.08451;115.77946;AU;10190
1980;Karabar;-35.37595;149.2328;AU;8184
1981;Kariong;-33.43972;151.29453;AU;6305
1982;Alexandra Hills;-27.53221;153.22889;AU;16043
1983;Jamisontown;-33.76797;150.67681;AU;5485
1984;Nollamara;-31.88016;115.84543;AU;11367
1985;Kingsgrove;-33.93932;151.09928;AU;12390
1986;Lalor Park;-33.7609;150.93123;AU;7637
1987;Langford;-32.04092;115.94157;AU;5573
1988;Bellbowrie;-27.55939;152.88278;AU;5366
1989;Padbury;-31.80645;115.7688;AU;7937
1990;Macquarie Fields;-33.99206;150.89307;AU;13686
1991;Gordon;-35.45676;149.08498;AU;7452
1992;Marayong;-33.74824;150.89272;AU;7675
1993;East Victoria Park;-31.98894;115.90388;AU;9854
1994;Minchinbury;-33.78724;150.82956;AU;5627
1995;Mount Pritchard;-33.90295;150.90465;AU;9926
1996;Palmyra;-32.04502;115.78589;AU;6737
1997;Bentley Park;-17.00389;145.73819;AU;7890
1998;Berserker;-23.35817;150.52042;AU;6865
1999;Oak Flats;-34.56229;150.82193;AU;6427
2000;Narwee;-33.94653;151.06919;AU;5636
2001;Panania;-33.95366;150.99733;AU;12382
2002;Condell Park;-33.92458;151.01093;AU;11523
2003;Ropes Crossing;-33.73276;150.79104;AU;6151
2004;Rosemeadow;-34.10414;150.79282;AU;7756
2005;Ruse;-34.06976;150.84168;AU;5520
2006;Kedron;-27.40286;153.02969;AU;9117
2007;Brinsmead;-16.89921;145.71554;AU;5480
2008;South Hurstville;-33.97756;151.1055;AU;5102
2009;Glengowrie;-34.98708;138.53674;AU;5185
2010;Wyoming;-33.40387;151.36254;AU;9927
2011;Calamvale;-27.62329;153.04785;AU;16927
2012;Burdell;-19.25056;146.69877;AU;5539
2013;Yagoona;-33.9049;151.01996;AU;17908
2014;Zetland;-33.90748;151.20857;AU;10269
2015;Enoggera;-27.42832;152.97467;AU;5133
2016;Aubin Grove;-32.16714;115.86264;AU;6183
2017;Albanvale;-37.74609;144.76856;AU;5457
2018;Coombabah;-27.91073;153.37093;AU;10270
2019;Park Avenue;-23.35327;150.5189;AU;5001
2020;Golden Square;-36.77265;144.25271;AU;8694
2021;Annerley;-27.51228;153.03248;AU;11158
2022;Currans Hill;-34.04311;150.77301;AU;5251
2023;Highton;-38.17058;144.3114;AU;18388
2024;Warners Bay;-32.97251;151.65268;AU;7504
2025;Dulwich Hill;-33.9041;151.13945;AU;13536
2026;Sinnamon Park;-27.54436;152.9489;AU;6323
2027;Wiley Park;-33.9242;151.06737;AU;10098
2028;Hillvue;-31.12756;150.90711;AU;6191
2029;Mount Sheridan;-16.98608;145.73244;AU;8110
2030;Viewbank;-37.73991;145.09323;AU;6769
2031;Bellbird Park;-27.63674;152.88663;AU;6639
2032;Bellmere;-27.08441;152.89003;AU;5822
2033;Albert Park;-37.84107;144.95198;AU;6028
2034;Crestmead;-27.68759;153.08444;AU;12067
2035;Fletcher;-32.87232;151.64008;AU;5050
2036;Frenchville;-23.34761;150.5445;AU;8640
2037;Griffin;-27.27149;153.03942;AU;6703
2038;Kuraby;-27.60683;153.09367;AU;8037
2039;Craigie;-31.78727;115.76989;AU;5713
2040;Condon;-19.32968;146.71663;AU;5777
2041;Logan Central;-27.64385;153.10725;AU;5891
2042;McDowall;-27.38266;152.99194;AU;7108
2043;Marsden;-27.67342;153.09732;AU;13918
2044;Mooroobool;-16.93489;145.73137;AU;7098
2045;Manunda;-16.91721;145.7492;AU;5638
2046;Chirnside Park;-37.7386;145.31431;AU;9579
2047;Moorooka;-27.53436;153.0246;AU;10141
2048;Georges Hall;-33.90879;150.98852;AU;9007
2049;Macgregor;-35.2098;149.01101;AU;6696
2050;Pacific Pines;-27.93994;153.31436;AU;16605
2051;Pelican Waters;-26.83354;153.10013;AU;6213
2052;Robina;-28.07071;153.39329;AU;23140
2053;Runaway Bay;-27.91386;153.39775;AU;8970
2054;Runcorn;-27.59756;153.07699;AU;14434
2055;Tinana;-25.55196;152.6659;AU;5408
2056;Tingalpa;-27.4736;153.12704;AU;8051
2057;Hamlyn Terrace;-33.25125;151.47627;AU;6248
2058;Hillsdale;-33.95151;151.22784;AU;5412
2059;Warner;-27.31222;152.94981;AU;11209
2060;Wilsonton;-27.54312;151.91684;AU;5895
2061;Meadow Heights;-37.65117;144.91855;AU;14772
2062;Wurtulla;-26.75648;153.12805;AU;5852
2063;Algester;-27.61279;153.03239;AU;8330
2064;Newtown;-38.15391;144.33507;AU;9827
2065;Kings Langley;-33.75005;150.93542;AU;9286
2066;Fulham Gardens;-34.91483;138.51324;AU;6056
2067;Flagstaff Hill;-35.04861;138.58285;AU;9624
2068;Greenwith;-34.76565;138.71383;AU;8763
2069;Lockleys;-34.92588;138.52803;AU;5546
2070;Westminster;-31.86744;115.83919;AU;6058
2071;Paralowie;-34.75705;138.60819;AU;16386
2072;Sheidow Park;-35.07928;138.52738;AU;6507
2073;West Lakes;-34.87299;138.49458;AU;5611
2074;Strathdale;-36.76572;144.31548;AU;5555
2075;Baldivis;-32.32889;115.83047;AU;30472
2076;Bertram;-32.24369;115.84572;AU;6094
2077;Beckenham;-32.02481;115.95989;AU;7385
2078;Bibra Lake;-32.09764;115.81921;AU;5744
2079;Cable Beach;-17.96098;122.21269;AU;8529
2080;Cloverdale;-31.96281;115.94428;AU;7926
2081;Carey Park;-33.34878;115.6493;AU;5001
2082;Parkinson;-27.6434;153.02975;AU;10708
2083;Carine;-31.8523;115.78258;AU;6341
2084;Girrawheen;-31.84103;115.83978;AU;8672
2085;Coolbellup;-32.08124;115.80606;AU;5209
2086;Cooloongup;-32.31506;115.77772;AU;6670
2087;Lurnea;-33.93539;150.89673;AU;9282
2088;Dalyellup;-33.40844;115.61506;AU;8707
2089;Dianella;-31.88822;115.87186;AU;23034
2090;Duncraig;-31.83291;115.7759;AU;14976
2091;Forrestfield;-31.98277;116.00673;AU;12480
2092;Halls Head;-32.54315;115.69665;AU;13094
2093;High Wycombe;-31.94444;116.0034;AU;11990
2094;Kingsley;-31.81036;115.80077;AU;12812
2095;Kardinya;-32.06561;115.81483;AU;8538
2096;Karrinyup;-31.87233;115.77684;AU;9037
2097;Kewdale;-31.97886;115.95159;AU;6747
2098;Lesmurdie;-32.00199;116.04821;AU;8142
2099;Morley;-31.88775;115.9099;AU;21134
2100;Mount Hawthorn;-31.92;115.83509;AU;7351
2101;Ocean Reef;-31.75871;115.73601;AU;7689
2102;Port Kennedy;-32.37342;115.7515;AU;13238
2103;Secret Harbour;-32.40589;115.75852;AU;11551
2104;Success;-32.14281;115.84999;AU;9905
2105;Tuart Hill;-31.89808;115.83495;AU;6880
2106;Thornlie;-32.06003;115.955;AU;22779
2107;Waikiki;-32.31606;115.7546;AU;12008
2108;Winthrop;-32.05216;115.82972;AU;5804
2109;Yangebup;-32.12065;115.81623;AU;7312
2110;Yokine;-31.90113;115.85319;AU;11364
2111;Lenah Valley;-42.87146;147.27514;AU;5880
2112;Kilburn;-34.8597;138.58559;AU;5384
2113;Casey;-35.16701;149.0947;AU;5664
2114;Braddon;-35.27078;149.13569;AU;6238
2115;Palmerston;-35.19447;149.1194;AU;5430
2116;Curtin;-35.32464;149.07763;AU;5160
2117;Dunlop;-35.19402;149.01984;AU;7049
2118;Evatt;-35.21191;149.06891;AU;5187
2119;Landsdale;-31.8075;115.86599;AU;12048
2120;Gungahlin;-35.18674;149.13619;AU;6094
2121;Harrison;-35.19906;149.15631;AU;7556
2122;Nicholls;-35.18733;149.09648;AU;6910
2123;Ngunnawal;-35.1728;149.11147;AU;10251
2124;Wanniassa;-35.39783;149.09086;AU;7347
2125;Bradbury;-34.0854;150.81541;AU;8730
2126;Kearneys Spring;-27.60495;151.94098;AU;8502
2127;Carlton;-33.97107;151.12136;AU;10635
2128;Clinton;-23.87518;151.21793;AU;5789
2129;Northgate;-34.85784;138.62908;AU;6154
2130;Beaconsfield;-21.09121;149.16544;AU;5260
2131;Hinchinbrook;-33.91878;150.86314;AU;11220
2132;Oatlands;-33.79595;151.02712;AU;5598
2133;Bull Creek;-32.05625;115.86242;AU;7624
2134;Punchbowl;-33.92893;151.05111;AU;20174
2135;Valentine;-33.01504;151.6429;AU;5417
2136;Bray Park;-27.29246;152.96783;AU;10099
2137;Regents Park;-27.67664;153.04165;AU;10943
2138;Parafield Gardens;-34.78254;138.61077;AU;16872
2139;Camira;-27.63461;152.92091;AU;7282
2140;Hillside;-37.69047;144.74172;AU;16976
2141;Durack;-27.58947;152.98577;AU;7426
2142;Kangaroo Point;-27.47679;153.0367;AU;8398
2143;Kelso;-19.38932;146.71912;AU;10291
2144;Wavell Heights;-27.39385;153.04698;AU;9479
2145;Red Hill;-27.45247;153.00208;AU;5390
2146;Huntingdale;-32.08318;115.96614;AU;8525
2147;Bayswater;-31.91686;115.91776;AU;14236
2148;Jindalee;-27.53446;152.93843;AU;5198
2149;Riverton;-32.03468;115.89856;AU;5547
2150;Wattle Grove;-32.00672;116.00046;AU;5906
2151;Bruce;-35.24405;149.09083;AU;7349
2152;Chisholm;-35.41249;149.12825;AU;5045
2153;Franklin;-35.19946;149.14329;AU;6324
2154;Monash;-35.41577;149.09063;AU;5305
2155;Glenvale;-27.56818;151.8934;AU;6238
2156;St Johns Park;-33.88295;150.90182;AU;6119
2157;St Clair;-33.79728;150.7847;AU;19856
2158;Mawson Lakes;-34.81589;138.60809;AU;13220
2159;The Ponds;-33.70228;150.91086;AU;11642
2160;Amaroo;-35.16959;149.12802;AU;5628
2161;Wattle Grove;-33.95443;150.94447;AU;8885
2162;Middle Ridge;-27.60709;151.96688;AU;6934
2163;Kirwan;-19.30323;146.72531;AU;21034
2164;Valley View;-34.83994;138.66072;AU;6007
2165;Floreat;-31.93862;115.79211;AU;7695
2166;Braybrook;-37.78671;144.85484;AU;9338
2167;Currimundi;-26.76925;153.12237;AU;6565
2168;Cairnlea;-37.75931;144.78781;AU;9653
2169;Bundoora;-37.69825;145.05967;AU;28828
2170;Melville;-32.04039;115.80116;AU;5583
2171;Burton;-34.73339;138.60247;AU;6242
2172;Patterson Lakes;-38.06934;145.14327;AU;7371
2173;Salisbury;-27.55145;153.0325;AU;6203
2174;Inglewood;-31.91663;115.8798;AU;5529
2175;Mountain Creek;-26.70278;153.10133;AU;11080
2176;Cranbrook;-19.30553;146.75286;AU;5826
2177;Southern River;-32.10658;115.95896;AU;10135
2178;Narrabundah;-35.3357;149.14924;AU;6166
2179;Skye;-38.10505;145.2163;AU;7971
2180;Woodcroft;-33.75637;150.88071;AU;6423
2181;Dudley Park;-32.55221;115.731;AU;5996
2182;Mirrabooka;-31.85963;115.86587;AU;8085
2183;Beaumont Hills;-33.69993;150.9411;AU;8944
2184;North Adelaide;-34.90733;138.59141;AU;7794
2185;Victoria Park;-31.97619;115.90525;AU;8493
2186;Whyalla Norrie;-33.02903;137.53922;AU;6760
2187;Whyalla Stuart;-33.02493;137.52471;AU;6605
2188;Aldinga Beach;-35.27826;138.45802;AU;10343
2189;Bondi Junction;-33.89275;151.24723;AU;9649
2190;Bald Hills;-27.32112;153.00857;AU;6458
2191;Beecroft;-33.74954;151.0648;AU;9290
2192;Williams Landing;-37.8619;144.74371;AU;6607
2193;Lane Cove North;-33.80543;151.16638;AU;11345
2194;Christies Beach;-35.13876;138.47232;AU;5404
2195;Seaford Rise;-35.19296;138.48172;AU;5992
2196;Boambee East;-30.34662;153.0732;AU;5068
2197;Ascot;-27.43154;153.058;AU;5773
2198;Chermside West;-27.38383;153.01586;AU;6384
2199;Everton Park;-27.40732;152.9884;AU;8751
2200;Stafford;-27.41044;153.01105;AU;6423
2201;Stafford Heights;-27.39354;153.0105;AU;6702
2202;Coopers Plains;-27.56463;153.04067;AU;5596
2203;Forest Lake;-27.62563;152.96883;AU;22581
2204;Greenslopes;-27.50815;153.04951;AU;9197
2205;Mansfield;-27.53929;153.09895;AU;8588
2206;Mount Gravatt East;-27.5405;153.08221;AU;11663
2207;Sunnybank Hills;-27.61025;153.05388;AU;17842
2208;Upper Mount Gravatt;-27.56128;153.08453;AU;9144
2209;Yeronga;-27.51571;153.01642;AU;6364
2210;Camp Hill;-27.49354;153.07629;AU;10932
2211;Manly West;-27.47382;153.16641;AU;11719
2212;Morningside;-27.46165;153.07511;AU;10176
2213;Wynnum West;-27.45824;153.15319;AU;12018
2214;Springfield;-27.65365;152.91716;AU;6705
2215;Rochedale South;-27.59521;153.12332;AU;15073
2216;Waterford West;-27.69056;153.13319;AU;6341
2217;Arana Hills;-27.39808;152.95797;AU;6672
2218;Caboolture South;-27.09389;152.94874;AU;5277
2219;Eatons Hill;-27.3392;152.9599;AU;7805
2220;Ferny Hills;-27.39594;152.93737;AU;8563
2221;Flemington;-37.78825;144.93001;AU;7737
2222;Fairfield;-37.77977;145.01764;AU;6452
2223;Heidelberg Heights;-37.74313;145.05695;AU;6010
2224;Westmeadows;-37.67604;144.88701;AU;5780
2225;Keilor East;-37.73261;144.86504;AU;14311
2226;Coburg North;-37.72867;144.96134;AU;7562
2227;Hadfield;-37.70728;144.9416;AU;5589
2228;Oak Park;-37.71842;144.91945;AU;6137
2229;Pascoe Vale South;-37.73973;144.94615;AU;9934
2230;Bayswater North;-37.82612;145.29831;AU;8654
2231;Vermont South;-37.85747;145.1827;AU;11503
2232;Cranbourne East;-38.11531;145.29814;AU;15994
2233;Cranbourne North;-38.07758;145.29871;AU;19900
2234;Cranbourne West;-38.0965;145.26707;AU;14926
2235;Narre Warren South;-38.04369;145.2923;AU;30132
2236;Dandenong North;-37.96649;145.2081;AU;22225
2237;Noble Park North;-37.94978;145.19257;AU;7394
2238;Frankston North;-38.12352;145.14836;AU;5756
2239;Frankston South;-38.16604;145.13643;AU;17826
2240;Keilor Downs;-37.72337;144.80839;AU;9880
2241;Sunshine North;-37.76987;144.82787;AU;11647
2242;Sunshine West;-37.79117;144.81637;AU;18568
2243;Altona Meadows;-37.88413;144.78367;AU;18874
2244;Seddon;-37.80607;144.8907;AU;5048
2245;West Footscray;-37.79746;144.87727;AU;11347
2246;Burnside Heights;-37.72691;144.75225;AU;5995
2247;Taylors Hill;-37.70988;144.75483;AU;14774
2248;Allambie Heights;-33.76655;151.24981;AU;6844
2249;Belfield;-33.90354;151.08467;AU;6295
2250;Berala;-33.87197;151.03386;AU;8974
2251;Berowra Heights;-33.61211;151.13754;AU;5162
2252;Bondi Beach;-33.89079;151.27852;AU;11733
2253;Cabramatta West;-33.89303;150.9119;AU;7138
2254;Cambridge Park;-33.74784;150.72208;AU;6646
2255;Caringbah South;-34.05662;151.12149;AU;12020
2256;Concord West;-33.84809;151.08609;AU;6378
2257;Dundas Valley;-33.78826;151.05261;AU;5374
2258;Ermington;-33.81483;151.05467;AU;10550
2259;Fairfield East;-33.86938;150.97129;AU;5241
2260;Fairfield Heights;-33.86445;150.93884;AU;7512
2261;Fairlight;-33.79575;151.27346;AU;5695
2262;Harris Park;-33.82285;151.00781;AU;5738
2263;Homebush West;-33.86269;151.06696;AU;8521
2264;Hornsby Heights;-33.6713;151.09428;AU;6204
2265;Hurstville;-33.9677;151.10149;AU;29744
2266;Kellyville Ridge;-33.70156;150.9179;AU;10395
2267;Killara;-33.76604;151.16213;AU;10451
2268;Kingswood Park;-33.76651;150.7144;AU;11813
2269;Marsfield;-33.77784;151.10574;AU;13218
2270;Merrylands West;-33.83269;150.96906;AU;6536
