RC,UFI,UNI,LAT,LONG,DMS_LAT,DMS_LONG,UTM,JOG,FC,DSG,PC,CC1,ADM1,ADM2,DIM,CC2,NT,LC,SHORT_FORM,GENERIC,SORT_NAME,FULL_NAME,FULL_NAME_ND,MODIFY_DATE
3,337857,419756,-12.9347222,45.1361111,-125605,450810,NL17,SD38-02,H,STM,,MF,0,,,,N,,,Mroni,ABADIRI MRONI,Mroni Abadiri,Mroni Abadiri,1997-12-23
3,335422,416907,-12.7225,45.0563889,-124321,450323,NL09,SD38-02,P,PPL,,MF,0,,,,V,,,,ACCUA,Accua,Accua,1997-12-23
3,335965,417567,-12.7280556,45.1925,-124341,451133,NL29,SD38-02,T,BCH,,MF,0,,,,V,,,,ACHIMATSO MTSANGA,Mtsanga Achimatso,Mtsanga Achimatso,1997-12-23
3,335422,416906,-12.7225,45.0563889,-124321,450323,NL09,SD38-02,P,PPL,,MF,0,,,,N,,,,ACOUA,Acoua,Acoua,1997-12-23
3,335423,416908,-12.7280556,45.0433333,-124341,450236,NL09,SD38-02,H,BAY,,MF,0,,,,N,,,Baie,ACOUA BAIED,Baie d' Acoua,Baie d' Acoua,1997-12-23
3,335329,416785,-12.6741667,45.1019444,-124027,450607,NL19,SD38-02,T,PT,,MF,0,,,,N,,,Rassi,AMAGOUIZI RASSI,Rassi Amagouizi,Rassi Amagouizi,1997-12-23
3,335431,416917,-12.7508333,45.0758333,-124503,450433,NL09,SD38-02,H,STM,,MF,0,,,,N,,,Mroni,ANALAMIHENI MRONI,Mroni Analamiheni,Mroni Analamiheni,1997-12-23
3,335453,416947,-12.7575,45.0744444,-124527,450428,NL08,SD38-02,T,HLL,,MF,0,,,,N,,,,ANALAVATO,Analavato,Analavato,1997-12-23
3,335463,416958,-12.7666667,45.0947222,-124600,450541,NL18,SD38-02,T,HDLD,,MF,0,,,,N,,,Tsiraka,ANDANFISSAKA TSIRAKA,Tsiraka Andanfissaka,Tsiraka Andanfissaka,1997-12-23
3,337816,419711,-12.9644444,45.1208333,-125752,450715,NL16,SD38-02,L,LCTY,,MF,0,,,,N,,,,ANDEMBE,Andembé,Andembe,1997-12-23
3,337154,418993,-12.8716667,45.1519444,-125218,450907,NL17,SD38-02,T,PASS,,MF,0,,,,N,,,,ANDILABE,Andilabé,Andilabe,1997-12-23
3,335464,416959,-12.7563889,45.0888889,-124523,450520,NL08,SD38-02,T,HLL,,MF,0,,,,N,,,,ANDIMAKA,Andimaka,Andimaka,1997-12-23
3,335320,416775,-12.6786111,45.0977778,-124043,450552,NL19,SD38-02,P,PPL,,MF,0,,,,V,,,,ANDREMA,Andréma,Andrema,1997-12-23
3,335319,416776,-12.665,45.0955556,-123954,450544,NL19,SD38-02,H,BAY,,MF,0,,,,V,,,,ANDREMA BAIE,Baie Andréma,Baie Andrema,1997-12-23
3,335330,416787,-12.6725,45.1122222,-124021,450644,NL19,SD38-02,T,ISL,,MF,0,,,,V,,,,ANDREMA ILE,Île Andréma,Ile Andrema,1997-12-23
3,335468,416965,-12.7613889,45.085,-124541,450506,NL08,SD38-02,H,STM,,MF,0,,,,N,,,Mroni,ANDRIANEBE MRONI,Mroni Andrianebe,Mroni Andrianebe,1997-12-23
3,337815,419710,-12.9786111,45.1225,-125843,450721,NL16,SD38-02,H,STM,,MF,0,,,,N,,,Mroni,ANIANANO MRONI,Mroni Anianano,Mroni Anianano,1997-12-23
3,335525,417029,-12.7488889,45.0891667,-124456,450521,NL09,SD38-02,R,RDB,,MF,0,,,,N,,,,ANKETABE,Anketabé,Anketabe,1997-12-23
1,334957,416363,-12.6455556,45.0244444,-123844,450128,NM00,SD38-02,T,BCH,,MF,0,,,,N,,,Mtsanga,ANTAKOUDJA MTSANGA,Mtsanga Antakoudja,Mtsanga Antakoudja,1997-12-23
1,335289,416742,-12.6691667,45.0886111,-124009,450519,NL09,SD38-02,H,COVE,,MF,0,,,,N,,,Maji,ANYOUNYI MAJI,Maji Anyounyi,Maji Anyounyi,1997-12-23
1,337077,418900,-12.8305556,45.1302778,-124950,450749,NL18,SD38-02,P,PPL,,MF,0,,,,N,,,,APANDZO,Apandzo,Apandzo,1997-12-23
3,335425,416910,-12.7369444,45.0402778,-124413,450225,NL09,SD38-02,T,BCH,,MF,0,,,,N,,,Mtsanga,APONDRA MTSANGA,Mtsanga Apondra,Mtsanga Apondra,1997-12-23
3,335432,416918,-12.7413889,45.0419444,-124429,450231,NL09,SD38-02,T,HDLD,,MF,0,,,,N,,,Tsiraka,APONDRA TSIRAKA,Tsiraka Apondra,Tsiraka Apondra,1997-12-23
3,335426,416912,-12.7130556,45.0452778,-124247,450243,NL09,SD38-02,T,BCH,,MF,0,,,,N,,,Mtsanga,BAMANA MTSANGA,Mtsanga Bamana,Mtsanga Bamana,1997-12-23
3,337588,419447,-12.9238889,45.1852778,-125526,451107,NL27,SD38-02,H,COVE,,MF,0,,,,N,,,Anse,BAMBO ANSE,Anse Bambo,Anse Bambo,1997-12-23
3,337590,419449,-12.9397222,45.1763889,-125623,451035,NL16,SD38-02,T,PT,,MF,0,,,,N,,,Rassi,BAMBO RASSI,Rassi Bambo,Rassi Bambo,1997-12-23
3,337059,418879,-12.9444444,45.2177778,-125640,451304,NL26,SD38-02,H,RF,,MF,0,,,,N,,,Récif,BAMBO RECIF,Récif Bambo,Recif Bambo,1997-12-23
3,337589,419448,-12.9261111,45.1738889,-125534,451026,NL17,SD38-02,P,PPL,,MF,0,,,,N,,,,BAMBOEST,Bambo Est,Bambo Est,1997-12-23
3,337879,419780,-12.9219444,45.0872222,-125519,450514,NL07,SD38-02,P,PPL,,MF,0,,,,N,,,,BAMBOOUEST,Bambo Ouest,Bambo Ouest,1997-12-23
3,335339,416804,-12.7,45.1280556,-124200,450741,NL19,SD38-02,T,PT,,MF,0,,,,V,,,,BANDABOI POINTE,Pointe Bandaboi,Pointe Bandaboi,1997-12-23
3,335346,416803,-12.7016667,45.1205556,-124206,450714,NL19,SD38-02,P,PPL,,MF,0,,,,N,,,,BANDRABOUA,Bandraboua,Bandraboua,1997-12-23
3,335339,416796,-12.7,45.1280556,-124200,450741,NL19,SD38-02,T,PT,,MF,0,,,,N,,,Pointe,BANDRABOUA POINTEDE,Pointe de Bandraboua,Pointe de Bandraboua,1997-12-23
3,336687,418414,-12.7452778,45.2186111,-124443,451307,NL29,SD38-02,P,PPL,,MF,0,,,,N,,,,BANDRAJOU,Bandrajou,Bandrajou,1997-12-23
3,335429,416915,-12.7366667,45.0644444,-124412,450352,NL09,SD38-02,V,FRST,,MF,0,,,,N,,,,BANDRAKOUNI,Bandrakouni,Bandrakouni,1997-12-23
3,337095,418918,-12.8780556,45.0694444,-125241,450410,NL07,SD38-02,H,RF,,MF,0,,,,N,,,Récif,BANDRAKOUNI RECIF,Récif Bandrakouni,Recif Bandrakouni,1997-12-23
3,337809,419704,-12.9786111,45.1088889,-125843,450632,NL16,SD38-02,T,RDGE,,MF,0,,,,N,,,Tsiraka,BANDRAKOUNI TSIRAKA,Tsiraka Bandrakouni,Tsiraka Bandrakouni,1997-12-23
3,335796,417319,-12.7527778,45.1497222,-124510,450859,NL19,SD38-02,V,FRST,,MF,0,,,,N,,,,BANDRAMAJI,Bandramaji,Bandramaji,1997-12-23
3,335858,417433,-12.7380556,45.1052778,-124417,450619,NL19,SD38-02,L,LCTY,,MF,0,,,,N,,,,BANDRANDZIA,Bandrandzia,Bandrandzia,1997-12-23
1,337104,418928,-12.845,45.1019444,-125042,450607,NL18,SD38-02,P,PPL,,MF,0,,,,N,,,,BANDRANI,Bandrani,Bandrani,1997-12-23
3,335854,417428,-12.7119444,45.1008333,-124243,450603,NL19,SD38-02,H,STM,,MF,0,,,,N,,,Mro,BANDRANI MROOUA,Mro oua Bandrani,Mro oua Bandrani,1997-12-23
3,337571,419429,-12.9066667,45.1913889,-125424,451129,NL27,SD38-02,P,PPL,,MF,0,,,,N,,,,BANDRELE,Bandrélé,Bandrele,1997-12-23
3,337057,418877,-12.8952778,45.2297222,-125343,451347,NL27,SD38-02,T,ISL,,MF,0,,,,N,,,Chissioua,BANDRELE CHISSIOUA,Chissioua Bandrélé,Chissioua Bandrele,1997-12-23
3,337055,418875,-12.8872222,45.2491667,-125314,451457,NL27,SD38-02,H,CHNM,,MF,0,,,,N,,,Passe,BANDRELE PASSEDE,Passe de Bandrélé,Passe de Bandrele,1997-12-23
3,337056,418876,-12.9013889,45.2444444,-125405,451440,NL27,SD38-02,H,RF,,MF,0,,,,N,,,Récif,BANDRELE RECIF,Récif Bandrélé,Recif Bandrele,1997-12-23
1,337074,418897,-12.835,45.1280556,-125006,450741,NL18,SD38-02,P,PPL,,MF,0,,,,N,,,,BARAKANI,Barakani,Barakani,1997-12-23
3,335478,416975,-12.7641667,45.1,-124551,450600,NL18,SD38-02,H,STM,,MF,0,,,,N,,,Mroni,BATIRINI MRONI,Mroni Batirini,Mroni Batirini,1997-12-23
3,337165,419012,-12.8911111,45.1363889,-125328,450811,NL17,SD38-02,H,STM,,MF,0,,,,N,,,Mroni,BE MRONI,Mroni Bé,Mroni Be,1997-12-23
3,337558,419416,-12.9086111,45.1511111,-125431,450904,NL17,SD38-02,H,STMI,,MF,0,,,,N,,,Mroni,BE MRONI,Mroni Bé,Mroni Be,1997-12-23
3,337801,419696,-12.9708333,45.1577778,-125815,450928,NL16,SD38-02,H,STM,,MF,0,,,,N,,,Mroni,BE MRONI,Mroni Bé,Mroni Be,1997-12-23
3,337808,419703,-12.9894444,45.1258333,-125922,450733,NL16,SD38-02,T,HLL,,MF,0,,,,N,,,Tsiraka,BE TSIRAKA,Tsiraka Bé,Tsiraka Be,1997-12-23
3,335479,416976,-12.7561111,45.1016667,-124522,450606,NL18,SD38-02,H,STM,,MF,0,,,,N,,,Mroni,BEJA MRONI,Mroni Béja,Mroni Beja,1997-12-23
3,337044,418863,-12.8233333,45.1608333,-124924,450939,NL18,SD38-02,T,RDGE,,MF,0,,,,N,,,,BEJAMOUDOU,Béjamoudou,Bejamoudou,1997-12-23
3,337152,418991,-12.8772222,45.16,-125238,450936,NL17,SD38-02,T,MT,,MF,0,,,,N,,,Mlima,BENARA MLIMA,Mlima Bénara,Mlima Benara,1997-12-23
3,337565,419423,-12.9008333,45.1702778,-125403,451013,NL17,SD38-02,L,RESF,,MF,0,,,,N,,,Réserve Forestière,BENARA RESERVEFORESTIEREDE,Réserve Forestière de Bénara,Reserve Forestiere de Benara,1997-12-23
3,337153,418992,-12.8783333,45.1672222,-125242,451002,NL17,SD38-02,T,MT,,MF,0,,,,N,,,Mlima,BEPILIPILI MLIMA,Mlima Bépilipili,Mlima Bepilipili,1997-12-23
3,337813,419708,-12.9872222,45.1313889,-125914,450753,NL16,SD38-02,H,STM,,MF,0,,,,N,,,Mroni,BERAMBO MRONI,Mroni Berambo,Mroni Berambo,1997-12-23
3,335807,417332,-12.7211111,45.1213889,-124316,450717,NL19,SD38-02,H,STM,,MF,0,,,,N,,,Mro,BIZIJOU MROOUA,Mro oua Bizijou,Mro oua Bizijou,1997-12-23
3,335867,417445,-12.7158333,45.1713889,-124257,451017,NL19,SD38-02,T,ISL,,MF,0,,,,N,,,Île,BLANCHE ILE,Île Blanche,Ile Blanche,1997-12-23
1,334985,416401,-12.6833333,45.0372222,-124100,450214,NL09,SD38-02,H,BNK,,MF,0,,,,N,,,Banc,BOASADIA BANC,Banc Boa Sadia,Banc Boa Sadia,1997-12-23
3,337119,418948,-12.8530556,45.1077778,-125111,450628,NL17,SD38-02,T,PK,,MF,0,,,,N,,,Pengoua,BOLE PENGOUA,Pengoua Bolé,Pengoua Bole,1997-12-23
3,337140,418978,-12.8519444,45.195,-125107,451142,NL27,SD38-02,T,BCH,,MF,0,,,,N,,,Plage,BONNEMAREE PLAGEDELA,Plage de la Bonne Marée,Plage de la Bonne Maree,1997-12-23
3,334968,416376,-12.6786111,45.0644444,-124043,450352,NL09,SD38-02,T,PT,,MF,0,,,,N,,,Rassi,BOUEKOUNDROUNI RASSI,Rassi Bouékoundrouni,Rassi Bouekoundrouni,1997-12-23
3,337876,419777,-12.9025,45.0761111,-125409,450434,NL07,SD38-02,P,PPL,,MF,0,,,,N,,,,BOUENI,Bouéni,Boueni,1997-12-23
3,337868,419768,-12.9111111,45.1202778,-125440,450713,NL17,SD38-02,H,BAY,,MF,0,,,,N,,,Baie,BOUENI BAIEDE,Baie de Bouéni,Baie de Boueni,1997-12-23
3,337097,418920,-12.8975,45.0447222,-125351,450241,NL07,SD38-02,H,RF,,MF,0,,,,N,,,Récif,BOUENI RECIF,Récif Bouéni,Recif Boueni,1997-12-23
3,335798,417323,-12.7355556,45.1383333,-124408,450818,NL19,SD38-02,P,PPL,,MF,0,,,,V,,,,BOUILLONI,Bouilloni,Bouilloni,1997-12-23
3,337878,419779,-12.9158333,45.0797222,-125457,450447,NL07,SD38-02,T,BCH,,MF,0,,,,N,,,Mtsanga,BOUNDROUNI MTSANGA,Mtsanga Boundrouni,Mtsanga Boundrouni,1997-12-23
3,337130,418966,-12.8536111,45.1477778,-125113,450852,NL17,SD38-02,T,RDGE,,MF,0,,,,N,,,,BOUNGOUBE,Boungoubé,Boungoube,1997-12-23
3,335473,416970,-12.7630556,45.0944444,-124547,450540,NL18,SD38-02,H,STM,,MF,0,,,,N,,,Mroni,BOUNGOUMOUNE MRONI,Mroni Boungoumouné,Mroni Boungoumoune,1997-12-23
3,335798,417321,-12.7355556,45.1383333,-124408,450818,NL19,SD38-02,P,PPL,,MF,0,,,,N,,,,BOUYOUNI,Bouyouni,Bouyouni,1997-12-23
3,335800,417324,-12.7302778,45.1358333,-124349,450809,NL19,SD38-02,H,STM,,MF,0,,,,N,,,Mro,BOUYOUNI MROOUA,Mro oua Bouyouni,Mro oua Bouyouni,1997-12-23
3,335448,416938,-12.7488889,45.0544444,-124456,450316,NL09,SD38-02,T,BCH,,MF,0,,,,N,,,Mtsanga,CHANFI MTSANGA,Mtsanga Chanfi,Mtsanga Chanfi,1997-12-23
3,336782,418522,-12.7788889,45.19,-124644,451124,NL28,SD38-02,T,HLL,,MF,0,,,,N,,,,CHAOUENI,Chaouéni,Chaoueni,1997-12-23
3,337804,419699,-12.9938889,45.1483333,-125938,450854,NL16,SD38-02,T,PK,,MF,0,,,,N,,,,CHARIFOU,Charifou,Charifou,1997-12-23
3,335451,416945,-12.7622222,45.0752778,-124544,450431,NL08,SD38-02,P,PPL,,MF,0,,,,V,,,,CHEMBENIOUMBA,Chembénioumba,Chembenioumba,1997-12-23
3,335451,416944,-12.7622222,45.0752778,-124544,450431,NL08,SD38-02,P,PPL,,MF,0,,,,N,,,,CHEMBENYOUMBA,Chembényoumba,Chembenyoumba,1997-12-23
1,337086,418909,-12.8333333,45.1105556,-125000,450638,NL18,SD38-02,P,PPL,,MF,0,,,,N,,,,CHICONI,Chiconi,Chiconi,1997-12-23
1,337089,418912,-12.8372222,45.0972222,-125014,450550,NL18,SD38-02,H,BAY,,MF,0,,,,N,,,Baie,CHICONI BAIEDE,Baie de Chiconi,Baie de Chiconi,1997-12-23
1,337083,418906,-12.8380556,45.1194444,-125017,450710,NL18,SD38-02,R,RDJCT,,MF,0,,,,N,,,Carrefour,CHICONI CARREFOURDE,Carrefour de Chiconi,Carrefour de Chiconi,1997-12-23
1,337087,418910,-12.8288889,45.1055556,-124944,450620,NL18,SD38-02,T,HLL,,MF,0,,,,N,,,Mlima,CHICONI MLIMA,Mlima Chiconi,Mlima Chiconi,1997-12-23
3,335402,416879,-12.6986111,45.0491667,-124155,450257,NL09,SD38-02,T,BCH,,MF,0,,,,N,,,Mtsanga,CHIFOUNI MTSANGA,Mtsanga Chifouni,Mtsanga Chifouni,1997-12-23
3,335401,416878,-12.6975,45.0502778,-124151,450301,NL09,SD38-02,T,PT,,MF,0,,,,N,,,Rassi,CHIFOUNI RASSIYA,Rassi ya Chifouni,Rassi ya Chifouni,1997-12-23
3,335491,416990,-12.7777778,45.1,-124640,450600,NL18,SD38-02,H,STM,,MF,0,,,,N,,,Mro,CHIRINI MROOUA,Mro oua Chirini,Mro oua Chirini,1997-12-23
3,337652,419516,-12.9319444,45.1483333,-125555,450854,NL17,SD38-02,P,PPL,,MF,0,,,,N,,,,CHIRONGUI,Chirongui,Chirongui,1997-12-23
3,337648,419511,-12.935,45.1580556,-125606,450929,NL17,SD38-02,T,PASS,,MF,0,,,,N,,,Col,CHIRONGUI COLDE,Col de Chirongui,Col de Chirongui,1997-12-23
3,337856,419755,-12.9436111,45.1513889,-125637,450905,NL16,SD38-02,T,HLL,,MF,0,,,,N,,,Mlima,CHIRONGUI MLIMA,Mlima Chirongui,Mlima Chirongui,1997-12-23
3,337651,419515,-12.9377778,45.1555556,-125616,450920,NL16,SD38-02,L,RESF,,MF,0,,,,N,,,Réserve Forestière,CHIRONGUI RESERVEFORESTIEREDE,Réserve Forestière de Chirongui,Reserve Forestiere de Chirongui,1997-12-23
3,335490,416989,-12.7822222,45.0991667,-124656,450557,NL18,SD38-02,V,FRST,,MF,0,,,,N,,,,CHISSIMANI,Chissimani,Chissimani,1997-12-23
3,336736,418470,-12.78,45.2355556,-124648,451408,NL28,SD38-02,T,PT,,MF,0,,,,V,,,,CHOA POINTE,Pointe Choa,Pointe Choa,1997-12-23
3,334966,416373,-12.6719444,45.0508333,-124019,450303,NL09,SD38-02,T,ISLS,,MF,0,,,,N,,,Îles,CHOAZIL ILES,Îles Choazil,Iles Choazil,1997-12-23
3,337875,419776,-12.8972222,45.0713889,-125350,450417,NL07,SD38-02,T,PT,,MF,0,,,,N,,,Rassi,CHODONI RASSI,Rassi Chodoni,Rassi Chodoni,1997-12-23
3,337763,419653,-12.9552778,45.1605556,-125719,450938,NL16,SD38-02,T,MT,,MF,0,,,,N,,,Mlima,CHONGUIKELI MLIMA,Mlima Chongui Kéli,Mlima Chongui Keli,1997-12-23
3,335788,417307,-12.8011111,45.105,-124804,450618,NL18,SD38-02,T,HLL,,MF,0,,,,N,,,,CHOUNGUI,Choungui,Choungui,1997-12-23
3,337850,419749,-12.9594444,45.1244444,-125734,450728,NL16,SD38-02,P,PPL,,MF,0,,,,N,,,,CHOUNGUI,Choungui,Choungui,1997-12-23
3,337853,419752,-12.9538889,45.1316667,-125714,450754,NL16,SD38-02,T,MT,,MF,0,,,,N,,,Mlima,CHOUNGUI MLIMA,Mlima Choungui,Mlima Choungui,1997-12-23
3,337812,419707,-12.9686111,45.1308333,-125807,450751,NL16,SD38-02,P,PPL,,MF,0,,,,N,,,,CHOUNGUIKELI,Choungui Kéli,Choungui Keli,1997-12-23
1,337079,418902,-12.8330556,45.1347222,-124959,450805,NL18,SD38-02,P,PPL,,MF,0,,,,N,,,,COCONI,Coconi,Coconi,1997-12-23
1,337080,418903,-12.8369444,45.1180556,-125013,450705,NL18,SD38-02,H,STM,,MF,0,,,,N,,,Mro,COCONI MROOUA,Mro oua Coconi,Mro oua Coconi,1997-12-23
3,335791,417310,-12.7863889,45.1336111,-124711,450801,NL18,SD38-02,P,PPL,,MF,0,,,,N,,,,COMBANI,Combani,Combani,1997-12-23
3,336789,418529,-12.8016667,45.1494444,-124806,450858,NL18,SD38-02,T,MT,,MF,0,,,,N,,,Mlima,COMBANI MLIMA,Mlima Combani,Mlima Combani,1997-12-23
3,336787,418527,-12.7966667,45.1566667,-124748,450924,NL18,SD38-02,L,RESF,,MF,0,,,,N,,,Réserve Forestière,COMBANI RESERVEFORESTIEREDE,Réserve Forestière de Combani,Reserve Forestiere de Combani,1997-12-23
3,337572,419430,-12.9072222,45.1925,-125426,451133,NL27,SD38-02,H,STM,,MF,0,,,,N,,,Mro,DAGONI MROOUA,Mro oua Dagoni,Mro oua Dagoni,1997-12-23
3,337135,418971,-12.8425,45.1908333,-125033,451127,NL28,SD38-02,H,STM,,MF,0,,,,N,,,Mro,DANNI MROOUA,Mro oua Danni,Mro oua Danni,1997-12-23
3,337800,419695,-12.9691667,45.1588889,-125809,450932,NL16,SD38-02,P,PPL,,MF,0,,,,N,,,,DAPANI,Dapani,Dapani,1997-12-23
3,337644,419507,-12.9158333,45.1516667,-125457,450906,NL17,SD38-02,H,STM,,MF,0,,,,N,,,Mro,DARADJOJOU MROOUA,Mro oua Daradjojou,Mro oua Daradjojou,1997-12-23
3,337134,418970,-12.8386111,45.1869444,-125019,451113,NL28,SD38-02,H,STM,,MF,0,,,,N,,,Mro,DEMBENI MROOUA,Mro oua Dembéni,Mro oua Dembeni,1997-12-23
3,335795,417318,-12.7661111,45.1361111,-124558,450810,NL18,SD38-02,T,HLL,,MF,0,,,,N,,,Mlima,DIGO MLIMA,Mlima Digo,Mlima Digo,1997-12-23
3,335784,417303,-12.7911111,45.1033333,-124728,450612,NL18,SD38-02,H,SHOL,,MF,0,,,,N,,,Mtsanga,DINDIONI MTSANGA,Mtsanga Dindioni,Mtsanga Dindioni,1997-12-23
3,337896,419798,-12.9419444,45.1186111,-125631,450707,NL16,SD38-02,T,HLL,,MF,0,,,,N,,,Mlima,DJIALIMOU MLIMA,Mlima Djialimou,Mlima Djialimou,1997-12-23
3,337895,419797,-12.9541667,45.1075,-125715,450627,NL16,SD38-02,H,STM,,MF,0,,,,N,,,Mroni,DJIALIMOU MRONI,Mroni Djialimou,Mroni Djialimou,1997-12-23
1,337082,418905,-12.8313889,45.12,-124953,450712,NL18,SD38-02,P,PPL,,MF,0,,,,N,,,,DJIVANI,Djivani,Djivani,1997-12-23
3,337172,419019,-12.8694444,45.2188889,-125210,451308,NL27,SD38-02,T,PT,,MF,0,,,,N,,,Rassi,DOMONYOMBE RASSI,Rassi Domonyombé,Rassi Domonyombe,1997-12-23
1,337092,418915,-12.8472222,45.0783333,-125050,450442,NL07,SD38-02,H,RF,,MF,0,,,,N,,,Récif,DOMOUALI RECIF,Récif Domouali,Recif Domouali,1997-12-23
3,335328,416784,-12.6494444,45.1033333,-123858,450612,NM10,SD38-02,T,PT,,MF,0,,,,V,,,,DOUAMOUGNO CAP,Cap Douamougno,Cap Douamougno,1997-12-23
3,335328,416783,-12.6494444,45.1033333,-123858,450612,NM10,SD38-02,T,PT,,MF,0,,,,N,,,Rassi,DOUAMOUNYO RASSI,Rassi Douamounyo,Rassi Douamounyo,1997-12-23
1,337103,418927,-12.8422222,45.1063889,-125032,450623,NL18,SD38-02,P,PPL,,MF,0,,,,N,,,,DOUJANI,Doujani,Doujani,1997-12-23
3,336757,418495,-12.7908333,45.2138889,-124727,451250,NL28,SD38-02,P,PPL,,MF,0,,,,N,,,,DOUJANI,Doujani,Doujani,1997-12-23
3,336761,418499,-12.7916667,45.2136111,-124730,451249,NL28,SD38-02,H,STM,,MF,0,,,,N,,,Mro,DOUJANI MROOUA,Mro oua Doujani,Mro oua Doujani,1997-12-23
3,336816,418565,-12.7680556,45.2861111,-124605,451710,NL38,SD38-02,H,LKC,,MF,0,,,,N,,,Dziani,DZAHA DZIANI,Dziani Dzaha,Dziani Dzaha,1997-12-23
3,336810,418559,-12.7794444,45.2536111,-124646,451513,NL28,SD38-02,P,PPL,,MF,0,,,,N,,,,DZAOUDZI,Dzaoudzi,Dzaoudzi,1997-12-23
3,337163,419010,-12.8925,45.1383333,-125333,450818,NL17,SD38-02,P,PPLX,,MF,0,,,,N,,,,DZAOUDZI,Dzaoudzi,Dzaoudzi,1997-12-23
3,335399,416876,-12.6877778,45.0855556,-124116,450508,NL09,SD38-02,T,MT,,MF,0,,,,N,,,Mlima,DZIANIBOLE MLIMA,Mlima Dziani Bolé,Mlima Dziani Bole,1997-12-23
3,337157,419003,-12.8744444,45.1177778,-125228,450704,NL17,SD38-02,T,BCH,,MF,0,,,,N,,,Mtsanga,DZIENGUIZI MTSANGA,Mtsanga Dzienguizi,Mtsanga Dzienguizi,1997-12-23
3,335848,417426,-12.7172222,45.1127778,-124302,450646,NL19,SD38-02,P,PPL,,MF,0,,,,V,,,,DZOUMOGNE,Dzoumogne,Dzoumogne,1997-12-23
3,335848,417420,-12.7172222,45.1127778,-124302,450646,NL19,SD38-02,P,PPL,,MF,0,,,,N,,,,DZOUMONYE,Dzoumonyé,Dzoumonye,1997-12-23
3,335846,417418,-12.7225,45.1208333,-124321,450715,NL19,SD38-02,R,RDJCT,,MF,0,,,,N,,,Carrefour,DZOUMONYE CARREFOURDE,Carrefour de Dzoumonyé,Carrefour de Dzoumonye,1997-12-23
3,335392,416869,-12.7094444,45.0691667,-124234,450409,NL09,SD38-02,L,RESF,,MF,0,,,,N,,,Réserve forestière,DZOUMONYE RESERVEFORESTIEREDE,Réserve Forestière de Dzoumonyé,Reserve Forestiere de Dzoumonye,1997-12-23
3,335412,416889,-12.7169444,45.0413889,-124301,450229,NL09,SD38-02,T,BCH,,MF,0,,,,N,,,Mtsanga,FANOU MTSANGA,Mtsanga Fanou,Mtsanga Fanou,1997-12-23
1,337142,418980,-12.8597222,45.1916667,-125135,451130,NL27,SD38-02,P,PPL,,MF,0,,,,N,,,,FLORENCE,Florence,Florence,1997-12-23
3,335394,416871,-12.6988889,45.0602778,-124156,450337,NL09,SD38-02,T,BCH,,MF,0,,,,N,,,Mtsanga,FOUMBOUNI MTSANGA,Mtsanga Foumbouni,Mtsanga Foumbouni,1997-12-23
3,337870,419770,-12.9286111,45.1016667,-125543,450606,NL17,SD38-02,T,BCH,,MF,0,,,,N,,,Mtsanga,FOUMBOUNI MTSANGA,Mtsanga Foumbouni,Mtsanga Foumbouni,1997-12-23
3,336811,418560,-12.7838889,45.2588889,-124702,451532,NL28,SD38-02,P,PPL,,MF,0,,,,N,,,,FOUNGOUJOU,Foungoujou,Foungoujou,1997-12-23
3,335352,416815,-12.7069444,45.1205556,-124225,450714,NL19,SD38-02,P,PPL,,MF,0,,,,V,,,,GNAMBO,Gnambo,Gnambo,1997-12-23
1,337146,418984,-12.8633333,45.2055556,-125148,451220,NL27,SD38-02,T,HLL,,MF,0,,,,N,,,,GOGORAKANDZA,Gogorakandza,Gogorakandza,1997-12-23
3,336796,418537,-12.8113889,45.1222222,-124841,450720,NL18,SD38-02,H,STM,,MF,0,,,,N,,,Mro,GOMENI MROOUA,Mro oua Gomeni,Mro oua Gomeni,1997-12-23
3,337877,419778,-12.9122222,45.0783333,-125444,450442,NL07,SD38-02,T,BCH,,MF,0,,,,N,,,Mtsanga,GOUELA MTSANGA,Mtsanga Gouéla,Mtsanga Gouela,1997-12-23
3,336763,418501,-12.7980556,45.2102778,-124753,451237,NL28,SD38-02,H,STM,,MF,0,,,,N,,,Mro,GOULOUE MROOUA,Mro oua Gouloué,Mro oua Gouloue,1997-12-23
3,337897,419799,-12.6908333,45.2325,-124127,451357,NL29,SD38-02,H,RF,,MF,0,,,,N,,,Récif,GRANDRECIFDUNORDEST,Grand Récif du Nord Est,Grand Recif du Nord Est,1997-12-23
3,335484,416982,-12.7736111,45.0991667,-124625,450557,NL18,SD38-02,T,BCH,,MF,0,,,,N,,,Mtsanga,GUINI MTSANGA,Mtsanga Guini,Mtsanga Guini,1997-12-23
3,335786,417305,-12.7872222,45.1111111,-124714,450640,NL18,SD38-02,P,PPL,,MF,0,,,,N,,,,HACHENOUA,Hachénoua,Hachenoua,1997-12-23
1,337076,418899,-12.8286111,45.1327778,-124943,450758,NL18,SD38-02,H,STM,,MF,0,,,,N,,,Mro,HACHIKE MROOUA,Mro oua Hachike,Mro oua Hachike,1997-12-23
3,335407,416884,-12.7102778,45.0625,-124237,450345,NL09,SD38-02,T,MTS,,MF,0,,,,N,,,,HACHIROUNGOU,Hachiroungou,Hachiroungou,1997-12-23
3,335462,416956,-12.765,45.0905556,-124554,450526,NL08,SD38-02,T,BCH,,MF,0,,,,N,,,Mtsanga,HADSALE MTSANGA,Mtsanga Hadsalé,Mtsanga Hadsale,1997-12-23
1,337143,418981,-12.8655556,45.1933333,-125156,451136,NL27,SD38-02,P,PPL,,MF,0,,,,N,,,,HAJANGOUA,Hajangoua,Hajangoua,1997-12-23
1,337145,418983,-12.8572222,45.2036111,-125126,451213,NL27,SD38-02,H,COVE,,MF,0,,,,N,,,Anse,HAJANGOUA ANSE,Anse Hajangoua,Anse Hajangoua,1997-12-23
3,337148,418987,-12.8544444,45.1938889,-125116,451138,NL27,SD38-02,S,MNQR,,MF,0,,,,N,,,Carrière,HAJANGOUA CARRIEREDE,Carrière de Hajangoua,Carriere de Hajangoua,1997-12-23
3,337052,418872,-12.8302778,45.2438889,-124949,451438,NL28,SD38-02,T,ISLS,,MF,0,,,,N,,,Îles,HAJANGOUA ILES,Îles Hajangoua,Iles Hajangoua,1997-12-23
1,337141,418979,-12.8594444,45.1980556,-125134,451153,NL27,SD38-02,H,STM,,MF,0,,,,N,,,Mro,HAJANGOUA MROOUA,Mro oua Hajangoua,Mro oua Hajangoua,1997-12-23
3,337054,418874,-12.8780556,45.2580556,-125241,451529,NL27,SD38-02,H,RF,,MF,0,,,,N,,,Récif,HAJANGOUA RECIF,Récif Hajangoua,Recif Hajangoua,1997-12-23
3,337151,418990,-12.8713889,45.1722222,-125217,451020,NL17,SD38-02,L,RESF,,MF,0,,,,N,,,Réserve Forestière,HAJANGOUA RESERVEFORESTIEREDE,Réserve Forestière de Hajangoua,Reserve Forestiere de Hajangoua,1997-12-23
3,336721,418451,-12.7694444,45.2302778,-124610,451349,NL28,SD38-02,T,PEN,,MF,0,,,,N,,,,HAMAHA,Hamaha,Hamaha,1997-12-23
3,336717,418448,-12.7611111,45.235,-124540,451406,NL28,SD38-02,T,BCH,,MF,0,,,,N,,,Plage,HAMAHA PLAGEDE,Plage de Hamaha,Plage de Hamaha,1997-12-23
3,335384,416859,-12.6858333,45.0719444,-124109,450419,NL09,SD38-02,P,PPL,,MF,0,,,,N,,,,HAMJAGO,Hamjago,Hamjago,1997-12-23
3,337174,419021,-12.8786111,45.2133333,-125243,451248,NL27,SD38-02,P,PPL,,MF,0,,,,N,,,,HAMOURO,Hamouro,Hamouro,1997-12-23
3,335320,416773,-12.6786111,45.0977778,-124043,450552,NL19,SD38-02,P,PPL,,MF,0,,,,N,,,,HANDREMA,Handréma,Handrema,1997-12-23
3,335319,416772,-12.665,45.0955556,-123954,450544,NL19,SD38-02,H,BAY,,MF,0,,,,N,,,Baie,HANDREMA BAIEDE,Baie de Handréma,Baie de Handrema,1997-12-23
3,335856,417430,-12.6844444,45.1016667,-124104,450606,NL19,SD38-02,R,RDJCT,,MF,0,,,,N,,,Carrefour,HANDREMA CARREFOURDE,Carrefour de Handréma,Carrefour de Handrema,1997-12-23
3,335330,416786,-12.6725,45.1122222,-124021,450644,NL19,SD38-02,T,ISL,,MF,0,,,,N,,,Chissioua,HANDREMA CHISSIOUA,Chissioua Handréma,Chissioua Handrema,1997-12-23
3,335317,416770,-12.6672222,45.0866667,-124002,450512,NL09,SD38-02,T,BCH,,MF,0,,,,N,,,Plage,HANDREMA PLAGEDE,Plage de Handréma,Plage de Handrema,1997-12-23
3,337871,419772,-12.9005556,45.0986111,-125402,450555,NL17,SD38-02,P,PPL,,MF,0,,,,N,,,,HANYOUNDROU,Hanyoundrou,Hanyoundrou,1997-12-23
3,335495,416994,-12.7575,45.1094444,-124527,450634,NL18,SD38-02,H,STM,,MF,0,,,,N,,,Mroni,HAOUALA MRONI,Mroni Haouala,Mroni Haouala,1997-12-23
3,336795,418536,-12.8027778,45.1158333,-124810,450657,NL18,SD38-02,H,STM,,MF,0,,,,N,,,Mro,HAOUTOUNGOU MROOUA,Mro oua Haoutoungou,Mro oua Haoutoungou,1997-12-23
3,335344,416801,-12.6933333,45.1083333,-124136,450630,NL19,SD38-02,T,RDGE,,MF,0,,,,N,,,Mlima,HASSOVE MLIMA,Mlima Hassové,Mlima Hassove,1997-12-23
3,337136,418972,-12.8411111,45.1888889,-125028,451120,NL28,SD38-02,P,PPL,,MF,0,,,,N,,,,ILONI,Iloni,Iloni,1997-12-23
1,337138,418975,-12.8463889,45.1927778,-125047,451134,NL27,SD38-02,T,BCH,,MF,0,,,,N,,,Mtsanga,ILONI MTSANGA,Mtsanga Iloni,Mtsanga Iloni,1997-12-23
3,337070,418892,-12.8305556,45.1886111,-124950,451119,NL28,SD38-02,P,PPL,,MF,0,,,,N,,,,IRONIBE,Ironi Bé,Ironi Be,1997-12-23
1,337071,418893,-12.8280556,45.19,-124941,451124,NL28,SD38-02,H,STM,,MF,0,,,,N,,,Mro,IRONIBE MROOUA,Mro oua Ironi Bé,Mro oua Ironi Be,1997-12-23
3,335387,416863,-12.6919444,45.0677778,-124131,450404,NL09,SD38-02,T,BCH,,MF,0,,,,N,,,Mtsanga,JIVA MTSANGA,Mtsanga Jiva,Mtsanga Jiva,1997-12-23
1,337078,418901,-12.8208333,45.1294444,-124915,450746,NL18,SD38-02,P,PPL,,MF,0,,,,N,,,,KAHANI,Kahani,Kahani,1997-12-23
3,335419,416898,-12.7194444,45.0383333,-124310,450218,NL09,SD38-02,T,HLL,,MF,0,,,,N,,,Tsiraka,KAHIRIMTROU TSIRAKA,Tsiraka Kahirimtrou,Tsiraka Kahirimtrou,1997-12-23
3,336806,418552,-12.7680556,45.2563889,-124605,451523,NL28,SD38-02,T,ISL,,MF,0,,,,N,,,,KAKAZOU,Kakazou,Kakazou,1997-12-23
3,336806,418553,-12.7680556,45.2563889,-124605,451523,NL28,SD38-02,T,ISL,,MF,0,,,,V,,,,KAKAZOU ILE,Île Kakazou,Ile Kakazou,1997-12-23
3,337561,419419,-12.9097222,45.1475,-125435,450851,NL17,SD38-02,H,STMI,,MF,0,,,,N,,,Mroni,KALE MRONI,Mroni Kalé,Mroni Kale,1997-12-23
3,335962,417557,-12.7272222,45.185,-124338,451106,NL29,SD38-02,P,PPL,,MF,0,,,,N,,,,KANGANI,Kangani,Kangani,1997-12-23
3,337892,419794,-12.9672222,45.0991667,-125802,450557,NL16,SD38-02,H,BAY,,MF,0,,,,N,,,Baie,KANI BAIEDE,Baie de Kani,Baie de Kani,1997-12-23
3,337894,419796,-12.9613889,45.1091667,-125741,450633,NL16,SD38-02,P,PPL,,MF,0,,,,N,,,,KANIBE,Kani Bé,Kani Be,1997-12-23
3,337885,419786,-12.9536111,45.1033333,-125713,450612,NL16,SD38-02,P,PPL,,MF,0,,,,N,,,,KANIKELI,Kani Kéli,Kani Keli,1997-12-23
3,337884,419785,-12.9519444,45.0975,-125707,450551,NL16,SD38-02,T,HLL,,MF,0,,,,N,,,Mlima,KANIKELI MLIMA,Mlima Kani Kéli,Mlima Kani Keli,1997-12-23
3,337880,419781,-12.9322222,45.1011111,-125556,450604,NL17,SD38-02,T,BCH,,MF,0,,,,N,,,Mtsanga,KANOUA MTSANGA,Mtsanga Kanoua,Mtsanga Kanoua,1997-12-23
3,336731,418462,-12.7702778,45.2180556,-124613,451305,NL28,SD38-02,P,PPL,,MF,0,,,,N,,,,KAOUENI,Kaouéni,Kaoueni,1997-12-23
3,336722,418452,-12.7661111,45.2263889,-124558,451335,NL28,SD38-02,H,STM,,MF,0,,,,N,,,Mro,KAOUENILAJOLI MROOUA,Mro oua Kaouénilajoli,Mro oua Kaouenilajoli,1997-12-23
3,335789,417308,-12.7938889,45.1191667,-124738,450709,NL18,SD38-02,H,LK,,MF,0,,,,N,,,Dziani,KARIHANI DZIANI,Dziani Karihani,Dziani Karihani,1997-12-23
3,337863,419762,-12.9288889,45.1172222,-125544,450702,NL17,SD38-02,P,PPL,,MF,0,,,,N,,,,KARONI,Karoni,Karoni,1997-12-23
3,337660,419529,-12.9172222,45.1391667,-125502,450821,NL17,SD38-02,T,ISL,,MF,0,,,,N,,,Chissioua,KARONI CHISSIOUA,Chissioua Karoni,Chissioua Karoni,1997-12-23
3,337862,419761,-12.9366667,45.1119444,-125612,450643,NL16,SD38-02,T,HLL,,MF,0,,,,N,,,Mlima,KARONI MLIMA,Mlima Karoni,Mlima Karoni,1997-12-23
3,337860,419759,-12.9361111,45.1291667,-125610,450745,NL16,SD38-02,H,STM,,MF,0,,,,N,,,Mro,KARONI MROOUA,Mro oua Karoni,Mro oua Karoni,1997-12-23
3,337802,419697,-12.9738889,45.155,-125826,450918,NL16,SD38-02,H,STM,,MF,0,,,,N,,,Mro,KAROVARA MROOUA,Mro oua Karovara,Mro oua Karovara,1997-12-23
1,337088,418911,-12.8283333,45.1108333,-124942,450639,NL18,SD38-02,P,PPL,,MF,0,,,,N,,,,KAVANI,Kavani,Kavani,1997-12-23
3,336732,418463,-12.7788889,45.2188889,-124644,451308,NL28,SD38-02,P,PPLX,,MF,0,,,,N,,,,KAVANI,Kavani,Kavani,1997-12-23
3,337570,419428,-12.9105556,45.1905556,-125438,451126,NL27,SD38-02,P,PPL,,MF,0,,,,N,,,,KAVANI,Kavani,Kavani,1997-12-23
3,335409,416886,-12.7216667,45.0544444,-124318,450316,NL09,SD38-02,H,STM,,MF,0,,,,N,,,Mroni,KAVANI MRONI,Mroni Kavani,Mroni Kavani,1997-12-23
3,337858,419757,-12.935,45.1347222,-125606,450805,NL17,SD38-02,H,STM,,MF,0,,,,N,,,Mroni,KAVANI MRONI,Mroni Kavani,Mroni Kavani,1997-12-23
3,335388,416864,-12.6927778,45.0744444,-124134,450428,NL09,SD38-02,L,LCTY,,MF,0,,,,N,,,,KETABE,Kétabé,Ketabe,1997-12-23
3,336723,418453,-12.7330556,45.2047222,-124359,451217,NL29,SD38-02,H,STM,,MF,0,,,,N,,,Mro,KIRISSONI MROOUA,Mro oua Kirissoni,Mro oua Kirissoni,1997-12-23
3,337779,419674,-12.9822222,45.1925,-125856,451133,NL26,SD38-02,T,PASS,,MF,0,,,,N,,,Mtsanga,KOLOBATSOUMOU MTSANGA,Mtsanga Kolo Batsoumou,Mtsanga Kolo Batsoumou,1997-12-23
3,337050,418870,-12.8352778,45.2322222,-125007,451356,NL28,SD38-02,T,ISL,,MF,0,,,,N,,,Chissioua,KOLOISSA CHISSIOUA,Chissioua Kolo Issa,Chissioua Kolo Issa,1997-12-23
3,337147,418985,-12.8488889,45.1791667,-125056,451045,NL17,SD38-02,T,SPUR,,MF,0,,,,N,,,,KOMBENI,Kombéni,Kombeni,1997-12-23
3,337776,419670,-12.9797222,45.1947222,-125847,451141,NL26,SD38-02,T,PASS,,MF,0,,,,N,,,Mtsanga,KOMBOBATO MTSANGA,Mtsanga Kombo Bato,Mtsanga Kombo Bato,1997-12-23
1,334959,416365,-12.6538889,45.0252778,-123914,450131,NM00,SD38-02,T,PT,,MF,0,,,,N,,,Rassi,KOME RASSI,Rassi Komé,Rassi Kome,1997-12-23
3,335974,417571,-12.7336111,45.2041667,-124401,451215,NL29,SD38-02,P,PPL,,MF,0,,,,V,,,,KONGO,Kongo,Kongo,1997-12-23
3,335975,417573,-12.7302778,45.2116667,-124349,451242,NL29,SD38-02,T,PT,,MF,0,,,,V,,,,KONGO POINTEDE,Pointe de Kongo,Pointe de Kongo,1997-12-23
3,336774,418514,-12.8022222,45.1963889,-124808,451147,NL28,SD38-02,P,PPL,,MF,0,,,,N,,,,KOUALE,Koualé,Kouale,1997-12-23
3,336785,418524,-12.7952778,45.1641667,-124743,450951,NL18,SD38-02,P,PPLQ,,MF,0,,,,N,,,,KOUALE,Koualé,Kouale,1997-12-23
3,336772,418512,-12.8072222,45.2016667,-124826,451206,NL28,SD38-02,H,STM,,MF,0,,,,N,,,Mro,KOUALE MROOUA,Mro oua Koualé,Mro oua Kouale,1997-12-23
3,336783,418523,-12.7811111,45.1841667,-124652,451103,NL18,SD38-02,T,SLP,,MF,0,,,,N,,,,KOUALEDZINDZANO,Koualé Dzindzano,Kouale Dzindzano,1997-12-23
3,336775,418515,-12.795,45.1861111,-124742,451110,NL28,SD38-02,P,PPL,,MF,0,,,,N,,,,KOUALELEGION,Koualé-Légion,Kouale-Legion,1997-12-23
3,335974,417570,-12.7336111,45.2041667,-124401,451215,NL29,SD38-02,P,PPL,,MF,0,,,,N,,,,KOUNGOU,Koungou,Koungou,1997-12-23
3,335972,417568,-12.7275,45.2002778,-124339,451201,NL29,SD38-02,T,BCH,,MF,0,,,,N,,,Plage,KOUNGOU PLAGEDE,Plage de Koungou,Plage de Koungou,1997-12-23
3,335975,417572,-12.7302778,45.2116667,-124349,451242,NL29,SD38-02,T,PT,,MF,0,,,,N,,,Pointe,KOUNGOU POINTEDE,Pointe de Koungou,Pointe de Koungou,1997-12-23
3,336813,418562,-12.785,45.2702778,-124706,451613,NL28,SD38-02,P,PPL,,MF,0,,,,N,,,,LABATTOIR,Labattoir,Labattoir,1997-12-23
3,337045,418864,-12.7844444,45.2775,-124704,451639,NL38,SD38-02,P,PPLX,,MF,0,,,,N,,,,LAFERME,La Ferme,La Ferme,1997-12-23
3,337058,418878,-12.9052778,45.2122222,-125419,451244,NL27,SD38-02,H,RF,,MF,0,,,,N,,,Récif,LAMINOIR RECIFDU,Récif du Laminoir,Recif du Laminoir,1997-12-23
3,336819,418569,-12.7888889,45.2886111,-124720,451719,NL38,SD38-02,T,HLL,,MF,0,,,,N,,,,LAVIGIE,La Vigie,La Vigie,1997-12-23
3,335847,417419,-12.7336111,45.1097222,-124401,450635,NL19,SD38-02,V,FRST,,MF,0,,,,N,,,,LAVIGIE,La Vigiè,La Vigie,1997-12-23
3,337100,418923,-12.9572222,45.0591667,-125726,450333,NL06,SD38-02,H,RF,,MF,0,,,,N,,,Récif,LEPOE RECIF,Récif Lépoé,Recif Lepoe,1997-12-23
3,336691,418445,-12.7558333,45.2486111,-124521,451455,NL28,SD38-02,T,ISL,,MF,0,,,,V,,,,LESQUATREFRERES,Les Quatre Frères,Les Quatre Freres,1997-12-23
3,337053,418873,-12.8616667,45.2677778,-125142,451604,NL27,SD38-02,H,CHNM,,MF,0,,,,N,,,Passe,LONGOGORI PASSE,Passe Longogori,Passe Longogori,1997-12-23
3,335861,417437,-12.7316667,45.1611111,-124354,450940,NL19,SD38-02,P,PPL,,MF,0,,,,N,,,,LONGONI,Longoni,Longoni,1997-12-23
3,335853,417425,-12.7138889,45.1475,-124250,450851,NL19,SD38-02,H,BAY,,MF,0,,,,N,,,Baie,LONGONI BAIEDE,Baie de Longoni,Baie de Longoni,1997-12-23
3,335863,417439,-12.7291667,45.1588889,-124345,450932,NL19,SD38-02,H,STM,,MF,0,,,,N,,,Mro,LONGONI MROOUA,Mro oua Longoni,Mro oua Longoni,1997-12-23
3,335859,417435,-12.7236111,45.1619444,-124325,450943,NL19,SD38-02,T,BCH,,MF,0,,,,N,,,Plage,LONGONI PLAGEDE,Plage de Longoni,Plage de Longoni,1997-12-23
3,335866,417444,-12.7161111,45.1630556,-124258,450947,NL19,SD38-02,T,PT,,MF,0,,,,N,,,Pointe,LONGONI POINTEDE,Pointe de Longoni,Pointe de Longoni,1997-12-23
3,335860,417436,-12.7194444,45.165,-124310,450954,NL19,SD38-02,L,PRT,,MF,0,,,,N,,,Port,LONGONI PORTDE,Port de Longoni,Port de Longoni,1997-12-23
1,337144,418982,-12.8705556,45.1975,-125214,451151,NL27,SD38-02,P,PPL,,MF,0,,,,N,,,,MABOUNGANI,Maboungani,Maboungani,1997-12-23
3,335493,416992,-12.7686111,45.1094444,-124607,450634,NL18,SD38-02,H,STM,,MF,0,,,,N,,,Mro,MABOUNGANI MROOUA,Mro oua Maboungani,Mro oua Maboungani,1997-12-23
3,335406,416883,-12.7108333,45.055,-124239,450318,NL09,SD38-02,T,SPUR,,MF,0,,,,N,,,,MADJABALINI,Madjabalini,Madjabalini,1997-12-23
3,336791,418532,-12.8161111,45.1783333,-124858,451042,NL18,SD38-02,T,RDGE,,MF,0,,,,N,,,Mlima,MAEVADOANI MLIMA,Mlima Maévadoani,Mlima Maevadoani,1997-12-23
3,335427,416913,-12.7191667,45.0722222,-124309,450420,NL09,SD38-02,L,LCTY,,MF,0,,,,N,,,,MAEVARANO,Maéva Rano,Maeva Rano,1997-12-23
3,336736,418469,-12.78,45.2355556,-124648,451408,NL28,SD38-02,T,PT,,MF,0,,,,N,,,Pointe,MAHABO POINTE,Pointe Mahabo,Pointe Mahabo,1997-12-23
1,334961,416368,-12.6461111,45.0444444,-123846,450240,NM00,SD38-02,H,SHOL,,MF,0,,,,N,,,Mtsanga,MAJI MTSANGA,Mtsanga Maji,Mtsanga Maji,1997-12-23
3,336682,418408,-12.7413889,45.2169444,-124429,451301,NL29,SD38-02,P,PPL,,MF,0,,,,N,,,,MAJIKAVOKOROPA,Majikavo Koropa,Majikavo Koropa,1997-12-23
3,336690,418417,-12.7497222,45.2286111,-124459,451343,NL29,SD38-02,P,PPL,,MF,0,,,,N,,,,MAJIKAVOLAMIR,Majikavo Lamir,Majikavo Lamir,1997-12-23
3,336690,418418,-12.7497222,45.2286111,-124459,451343,NL29,SD38-02,P,PPL,,MF,0,,,,V,,,,MAJIKAVOb,Majikavo 1,Majikavo 1,1997-12-23
3,336682,418411,-12.7413889,45.2169444,-124429,451301,NL29,SD38-02,P,PPL,,MF,0,,,,V,,,,MAJIKAVOc,Majikavo 2,Majikavo 2,1997-12-23
3,336730,418461,-12.7658333,45.1880556,-124557,451117,NL28,SD38-02,S,MSSN,,MF,0,,,,N,,,,MAJIMBINI,Majimbini,Majimbini,1997-12-23
3,336759,418497,-12.7866667,45.2180556,-124712,451305,NL28,SD38-02,H,STM,,MF,0,,,,N,,,Mro,MAJIMBINI MROOUA,Mro oua Majimbini,Mro oua Majimbini,1997-12-23
3,336725,418455,-12.7552778,45.1861111,-124519,451110,NL28,SD38-02,L,RESF,,MF,0,,,,N,,,Réserve Forestière,MAJIMBINI RESERVEFORESTIEREDE,Réserve Forestière de Majimbini,Reserve Forestiere de Majimbini,1997-12-23
3,337865,419764,-12.9222222,45.1058333,-125520,450621,NL17,SD38-02,P,PPL,,MF,0,,,,N,,,,MAJIMEOUNI,Majiméouni,Majimeouni,1997-12-23
3,337159,419005,-12.8875,45.1366667,-125315,450812,NL17,SD38-02,H,STM,,MF,0,,,,N,,,Mro,MAKOULATSA MROOUA,Mro oua Makoulatsa,Mro oua Makoulatsa,1997-12-23
3,337160,419006,-12.8883333,45.1352778,-125318,450807,NL17,SD38-02,T,BCH,,MF,0,,,,N,,,Mtsanga,MAKOULATSA MTSANGA,Mtsanga Makoulatsa,Mtsanga Makoulatsa,1997-12-23
3,337640,419503,-12.9169444,45.1563889,-125501,450923,NL17,SD38-02,P,PPL,,MF,0,,,,N,,,,MALAMANI,Malamani,Malamani,1997-12-23
1,334963,416370,-12.6688889,45.0461111,-124008,450246,NL09,SD38-02,T,ISL,,MF,0,,,,N,,,,MALANDZAMIAYAJOU,Malandzamiayajou,Malandzamiayajou,1997-12-23
1,334965,416372,-12.6738889,45.0555556,-124026,450320,NL09,SD38-02,T,ISL,,MF,0,,,,N,,,,MALANDZAMIAYATSINI,Malandzamiayatsini,Malandzamiayatsini,1997-12-23
3,335350,416810,-12.7097222,45.1191667,-124235,450709,NL19,SD38-02,V,FRST,,MF,0,,,,N,,,,MAMBANI,Mambani,Mambani,1997-12-23
1,-2087895,-2899364,-12.7794444,45.2272222,-124646,451338,NL28,SD38-02,P,PPLC,,MF,0,,,,V,,,,MAMBUTZOU,Mambutzou,Mambutzou,1997-12-23
1,-2087895,-2899365,-12.7794444,45.2272222,-124646,451338,NL28,SD38-02,P,PPLC,,MF,0,,,,N,,,,MAMOUDZOU,Mamoudzou,Mamoudzou,1997-12-23
1,-2087895,-2899366,-12.7794444,45.2272222,-124646,451338,NL28,SD38-02,P,PPLC,,MF,0,,,,V,,,,MAMOUTZOU,Mamoutzou,Mamoutzou,1997-12-23
1,-2087895,-2899367,-12.7794444,45.2272222,-124646,451338,NL28,SD38-02,P,PPLC,,MF,0,,,,V,,,,MAMUTZU,Mamutzu,Mamutzu,1997-12-23
3,335793,417314,-12.7938889,45.1397222,-124738,450823,NL18,SD38-02,T,PROM,,MF,0,,,,N,,,,MANDANI,Mandani,Mandani,1997-12-23
1,337085,418908,-12.8416667,45.1138889,-125030,450650,NL18,SD38-02,P,PPL,,MF,0,,,,N,,,,MANGAJOU,Mangajou,Mangajou,1997-12-23
1,337084,418907,-12.8419444,45.115,-125031,450654,NL18,SD38-02,H,STM,,MF,0,,,,N,,,Mro,MANGAJOU MROOUA,Mro oua Mangajou,Mro oua Mangajou,1997-12-23
3,337164,419011,-12.8888889,45.1411111,-125320,450828,NL17,SD38-02,P,PPLX,,MF,0,,,,N,,,,MANYASSINI,Manyassini,Manyassini,1997-12-23
3,335804,417327,-12.7369444,45.1280556,-124413,450741,NL19,SD38-02,T,RDGE,,MF,0,,,,N,,,Mlima,MAOUENI MLIMA,Mlima Maoueni,Mlima Maoueni,1997-12-23
3,337798,419693,-12.9913889,45.1752778,-125929,451031,NL16,SD38-02,T,PT,,MF,0,,,,N,,,Rassi,MAOUSSI RASSI,Rassi Maoussi,Rassi Maoussi,1997-12-23
3,335428,416914,-12.7291667,45.0930556,-124345,450535,NL19,SD38-02,T,MT,,MF,0,,,,N,,,Mlima,MAPOUERA MLIMA,Mlima Mapouéra,Mlima Mapouera,1997-12-23
3,335849,417421,-12.7169444,45.0986111,-124301,450555,NL19,SD38-02,H,STM,,MF,0,,,,N,,,Mro,MAPOUERA MROOUA,Mro oua Mapouéra,Mro oua Mapouera,1997-12-23
3,335806,417330,-12.7341667,45.1197222,-124403,450711,NL19,SD38-02,T,RDGE,,MF,0,,,,N,,,Mlima,MARE MLIMA,Mlima Maré,Mlima Mare,1997-12-23
3,335808,417334,-12.7219444,45.1263889,-124319,450735,NL19,SD38-02,H,STM,,MF,0,,,,N,,,Mro,MARE MROOUA,Mro oua Maré,Mro oua Mare,1997-12-23
3,335454,416948,-12.7586111,45.0708333,-124531,450415,NL08,SD38-02,H,STM,,MF,0,,,,N,,,Mroni,MASSIMONI MRONI,Mroni Massimoni,Mroni Massimoni,1997-12-23
3,335855,417429,-12.7108333,45.1019444,-124239,450607,NL19,SD38-02,H,STM,,MF,0,,,,N,,,Mro,MASSOULAHA MROOUA,Mro oua Massoulaha,Mro oua Massoulaha,1997-12-23
3,337094,418917,-12.8625,45.0377778,-125145,450216,NL07,SD38-02,H,RF,,MF,0,,,,N,,,Récif,MATRE RECIF,Récif Matré,Recif Matre,1997-12-23
3,337132,418968,-12.8544444,45.1602778,-125116,450937,NL17,SD38-02,L,LCTY,,MF,0,,,,N,,,,MAVINGONI,Mavingoni,Mavingoni,1997-12-23
3,335327,416782,-12.6591667,45.1027778,-123933,450610,NM10,SD38-02,T,PT,,MF,0,,,,N,,,Rassi,MAVOULE RASSI,Rassi Mavoulé,Rassi Mavoule,1997-12-23
1,-1187193,286130,-12.8333333,45.1666667,-125000,451000,NL18,SD38-02,A,PCL,,MF,0,,,,V,,,,MAYOTTE,Mayotte,Mayotte,1997-12-23
1,-1187194,-1749214,-12.8077778,45.1602778,-124828,450937,NL18,SD38-02,T,ISL,,MF,0,,,,N,,,,MAYOTTE,Mayotte,Mayotte,1997-12-23
1,-1187193,-1749213,-12.8333333,45.1666667,-125000,451000,NL18,SD38-02,A,PCL,,MF,0,,,,N,,Mayotte,Collectivité territoriale,MAYOTTE COLLECTIVITETERRITORIALEDE,Collectivité Territoriale de Mayotte,Collectivite Territoriale de Mayotte,1997-12-23
1,-1187193,274327,-12.8333333,45.1666667,-125000,451000,NL18,SD38-02,A,PCL,,MF,0,,,,C,,Mayotte,,MAYOTTE TERRITORIALCOLLECTIVITYOF,Territorial Collectivity of Mayotte,Territorial Collectivity of Mayotte,1997-12-23
3,337883,419784,-12.9416667,45.0997222,-125630,450559,NL16,SD38-02,P,PPL,,MF,0,,,,N,,,,MBOUEANATSA,Mbouéanatsa,Mboueanatsa,1997-12-23
3,337882,419783,-12.9425,45.0986111,-125633,450555,NL16,SD38-02,T,BCH,,MF,0,,,,N,,,Mtsanga,MBOUEANATSA MTSANGA,Mtsanga Mbouéanatsa,Mtsanga Mboueanatsa,1997-12-23
3,337806,419701,-12.9875,45.1347222,-125915,450805,NL16,SD38-02,P,PPL,,MF,0,,,,N,,,,MBOUINI,Mbouini,Mbouini,1997-12-23
3,337898,419800,-13.0002778,45.1355556,-130001,450808,NL16,SD38-02,T,ISL,,MF,0,,,,N,,,Chissioua,MBOUINI CHISSIOUA,Chissioua Mbouini,Chissioua Mbouini,1997-12-23
3,337168,419015,-12.9027778,45.1486111,-125410,450855,NL17,SD38-02,P,PPLX,,MF,0,,,,N,,,,MBOUYOUNI,Mbouyouni,Mbouyouni,1997-12-23
3,336768,418507,-12.8086111,45.2322222,-124831,451356,NL28,SD38-02,T,ISL,,MF,0,,,,N,,,Chissioua,MBOUZI CHISSIOUA,Chissioua Mbouzi,Chissioua Mbouzi,1997-12-23
3,337125,418955,-12.8488889,45.1283333,-125056,450742,NL17,SD38-02,L,LCTY,,MF,0,,,,N,,,,MENOUROUKETRAKA,Ménourou Kétraka,Menourou Ketraka,1997-12-23
3,335802,417325,-12.7286111,45.135,-124343,450806,NL19,SD38-02,H,STM,,MF,0,,,,N,,,Mro,MERESSE MROOUA,Mro oua Meresse,Mro oua Meresse,1997-12-23
3,335346,416811,-12.7016667,45.1205556,-124206,450714,NL19,SD38-02,P,PPL,,MF,0,,,,V,,,,MGOMBANI,M'Gombani,M'Gombani,1997-12-23
3,335864,417442,-12.7286111,45.175,-124343,451030,NL19,SD38-02,H,STM,,MF,0,,,,N,,,Mro,MGOMBANI MROOUA,Mro oua Mgombani,Mro oua Mgombani,1997-12-23
3,335852,417427,-12.7186111,45.1291667,-124307,450745,NL19,SD38-02,S,JTY,,MF,0,,,,V,,,,MGOUDAJOU JETEE,Jetée M'Goudajou,Jetee M'Goudajou,1997-12-23
3,335852,417424,-12.7186111,45.1291667,-124307,450745,NL19,SD38-02,S,JTY,,MF,0,,,,N,,,Jetée,MGOUEDAJOU JETEEDE,Jetée de Mgouédajou,Jetee de Mgouedajou,1997-12-23
3,335865,417443,-12.7297222,45.1741667,-124347,451027,NL19,SD38-02,V,FRST,,MF,0,,,,N,,,,MIANGANI,Miangani,Miangani,1997-12-23
3,337173,419020,-12.8733333,45.2166667,-125224,451300,NL27,SD38-02,T,BCH,,MF,0,,,,N,,,Mtsanga,MILOUANI MTSANGA,Mtsanga Milouani,Mtsanga Milouani,1997-12-23
3,335850,417422,-12.72,45.115,-124312,450654,NL19,SD38-02,H,STM,,MF,0,,,,N,,,Mro,MIMARI MROOUA,Mro oua Mimari,Mro oua Mimari,1997-12-23
3,335792,417313,-12.7863889,45.1386111,-124711,450819,NL18,SD38-02,P,PPL,,MF,0,,,,N,,,,MIRERENI,Miréréni,Mirereni,1997-12-23
3,335799,417322,-12.7358333,45.1438889,-124409,450838,NL19,SD38-02,P,PPL,,MF,0,,,,N,,,,MITSENI,Mitséni,Mitseni,1997-12-23
3,335352,416861,-12.7069444,45.1205556,-124225,450714,NL19,SD38-02,P,PPL,,MF,0,,,,V,,,,MJAGO,M'Jago,M'Jago,1997-12-23
3,335326,416781,-12.6594444,45.0938889,-123934,450538,NM10,SD38-02,T,HLL,,MF,0,,,,N,,,,MKADIJOU,Mkadijou,Mkadijou,1997-12-23
3,335447,416936,-12.7483333,45.0530556,-124454,450311,NL09,SD38-02,P,PPL,,MF,0,,,,N,,,,MLIHA,Mliha,Mliha,1997-12-23
1,334958,416364,-12.6427778,45.0366667,-123834,450212,NM00,SD38-02,T,BCH,,MF,0,,,,N,,,Mtsanga,MLIMA MTSANGA,Mtsanga Mlima,Mtsanga Mlima,1997-12-23
3,336805,418551,-12.7683333,45.2488889,-124606,451456,NL28,SD38-02,T,ISL,,MF,0,,,,V,,,,MOGNEAMIRI ILE,Île Mogne Amiri,Ile Mogne Amiri,1997-12-23
3,335419,416904,-12.7194444,45.0383333,-124310,450218,NL09,SD38-02,T,HLL,,MF,0,,,,V,,,,MOHILA POINTE,Pointe Mohila,Pointe Mohila,1997-12-23
1,337116,418944,-12.8591667,45.1011111,-125133,450604,NL17,SD38-02,T,BCH,,MF,0,,,,N,,,Mtsanga,MOMONI MTSANGA,Mtsanga Momoni,Mtsanga Momoni,1997-12-23
3,336805,418550,-12.7683333,45.2488889,-124606,451456,NL28,SD38-02,T,ISL,,MF,0,,,,N,,,,MONYEAMIRI,Monyé Amiri,Monye Amiri,1997-12-23
3,335794,417316,-12.8111111,45.1202778,-124840,450713,NL18,SD38-02,H,STM,,MF,0,,,,N,,,Mroni,MOUALA MRONI,Mroni Mouala,Mroni Mouala,1997-12-23
3,337872,419773,-12.8969444,45.0952778,-125349,450543,NL17,SD38-02,P,PPL,,MF,0,,,,N,,,,MOUANATRINDI,Mouanatrindi,Mouanatrindi,1997-12-23
3,337774,419668,-12.9761111,45.1986111,-125834,451155,NL26,SD38-02,T,BCH,,MF,0,,,,N,,,Mtsanga,MOUDOU MTSANGA,Mtsanga Moudou,Mtsanga Moudou,1997-12-23
3,335851,417423,-12.7213889,45.115,-124317,450654,NL19,SD38-02,H,STM,,MF,0,,,,N,,,Mro,MOUHOGONI MROOUA,Mro oua Mouhogoni,Mro oua Mouhogoni,1997-12-23
3,337162,419009,-12.8930556,45.14,-125335,450824,NL17,SD38-02,P,PPL,,MF,0,,,,N,,,,MOUNADZINI,Mounadzini,Mounadzini,1997-12-23
3,337576,419434,-12.8955556,45.1922222,-125344,451132,NL27,SD38-02,H,STM,,MF,0,,,,N,,,Mro,MOUNOU MROOUA,Mro oua Mounou,Mro oua Mounou,1997-12-23
3,337758,419647,-12.9413889,45.1661111,-125629,450958,NL16,SD38-02,L,CST,,MF,0,,,,N,,,,MOUNYAMBANI,Mounyambani,Mounyambani,1997-12-23
3,337760,419650,-12.9447222,45.1713889,-125641,451017,NL16,SD38-02,H,COVE,,MF,0,,,,N,,,Anse,MOUNYAMBANI ANSE,Anse Mounyambani,Anse Mounyambani,1997-12-23
3,337759,419649,-12.9419444,45.1683333,-125631,451006,NL16,SD38-02,T,BCH,,MF,0,,,,N,,,Mtsanga,MOUNYAMBANI MTSANGA,Mtsanga Mounyambani,Mtsanga Mounyambani,1997-12-23
3,337585,419443,-12.9172222,45.2011111,-125502,451204,NL27,SD38-02,T,PT,,MF,0,,,,N,,,Rassi,MOUNYENDRE RASSI,Rassi Mounyendré,Rassi Mounyendre,1997-12-23
3,337595,419454,-12.9227778,45.1691667,-125522,451009,NL17,SD38-02,T,SLP,,MF,0,,,,N,,,,MOURIJOU,Mourijou,Mourijou,1997-12-23
3,337767,419661,-12.9605556,45.1733333,-125738,451024,NL16,SD38-02,P,PPL,,MF,0,,,,N,,,,MOUTSAMOUDOU,Moutsamoudou,Moutsamoudou,1997-12-23
3,337757,419646,-12.9444444,45.1591667,-125640,450933,NL16,SD38-02,S,MNQR,,MF,0,,,,N,,,Carrière,MOUTSAMOUDOU CARRIEREDE,Carrière de Moutsamoudou,Carriere de Moutsamoudou,1997-12-23
3,337569,419427,-12.9122222,45.1841667,-125444,451103,NL17,SD38-02,T,SPUR,,MF,0,,,,N,,,,MOUTSATOUNDOU,Moutsatoundou,Moutsatoundou,1997-12-23
3,337586,419444,-12.9152778,45.1827778,-125455,451058,NL17,SD38-02,P,PPL,,MF,0,,,,N,,,,MOUTSATOUNDOU,Moutsatoundou,Moutsatoundou,1997-12-23
3,335446,416935,-12.7408333,45.0505556,-124427,450302,NL09,SD38-02,P,PPL,,MF,0,,,,N,,,,MOUTSOUMBATSOU,Moutsoumbatsou,Moutsoumbatsou,1997-12-23
3,336818,418567,-12.78,45.295,-124648,451742,NL38,SD38-02,T,BCHS,,MF,0,,,,N,,,Plages,MOYA PLAGESDE,Plages de Moya,Plages de Moya,1997-12-23
3,337646,419509,-12.9252778,45.1511111,-125531,450904,NL17,SD38-02,P,PPL,,MF,0,,,,N,,,,MRAMADOUDOU,Mramadoudou,Mramadoudou,1997-12-23
3,337169,419016,-12.9022222,45.1491667,-125408,450857,NL17,SD38-02,P,PPL,,MF,0,,,,N,,,,MRERENI,Mréréni,Mrereni,1997-12-23
3,337171,419018,-12.9030556,45.1527778,-125411,450910,NL17,SD38-02,P,PPL,,MF,0,,,,N,,,,MRERENIBE,Mréréni Bé,Mrereni Be,1997-12-23
3,337810,419705,-12.9769444,45.1216667,-125837,450718,NL16,SD38-02,P,PPL,,MF,0,,,,N,,,,MRONALEIA,Mronaléia,Mronaleia,1997-12-23
3,336812,418561,-12.7847222,45.2622222,-124705,451544,NL28,SD38-02,P,PPL,,MF,0,,,,N,,,,MRONYOMBENI,Mronyombéni,Mronyombeni,1997-12-23
3,335351,416813,-12.6986111,45.1027778,-124155,450610,NL19,SD38-02,T,RDGE,,MF,0,,,,N,,,Mlima,MROOUANYOMBE MLIMA,Mlima Mro oua Nyombé,Mlima Mro oua Nyombe,1997-12-23
3,335496,416996,-12.7833333,45.0958333,-124700,450545,NL18,SD38-02,H,STM,,MF,0,,,,N,,,,MROWALE,Mrowalé,Mrowale,1997-12-23
3,335790,417309,-12.7866667,45.1252778,-124712,450731,NL18,SD38-02,P,PPL,,MF,0,,,,N,,,,MROWALE,Mrowalé,Mrowale,1997-12-23
3,335333,416790,-12.6858333,45.1166667,-124109,450700,NL19,SD38-02,T,ISLT,,MF,0,,,,N,,,Chissioua,MTITI CHISSIOUA,Chissioua Mtiti,Chissioua Mtiti,1997-12-23
1,337106,418930,-12.8483333,45.0911111,-125054,450528,NL07,SD38-02,T,BCH,,MF,0,,,,N,,,Mtsanga,MTITI MTSANGA,Mtsanga Mtiti,Mtsanga Mtiti,1997-12-23
3,337881,419782,-12.9375,45.0991667,-125615,450557,NL16,SD38-02,T,BCH,,MF,0,,,,N,,,Mtsanga,MTITI MTSANGA,Mtsanga Mtiti,Mtsanga Mtiti,1997-12-23
3,337098,418921,-12.9186111,45.0594444,-125507,450334,NL07,SD38-02,H,RF,,MF,0,,,,N,,,Récif,MTITI RECIF,Récif Mtiti,Recif Mtiti,1997-12-23
1,334980,416394,-12.6791667,45.0797222,-124045,450447,NL09,SD38-02,P,PPL,,MF,0,,,,N,,,,MTSAHARA,Mtsahara,Mtsahara,1997-12-23
3,335390,416866,-12.6966667,45.0666667,-124148,450400,NL09,SD38-02,P,PPL,,MF,0,,,,N,,,,MTSAMBORO,Mtsamboro,Mtsamboro,1997-12-23
1,334960,416366,-12.6413889,45.0275,-123829,450139,NM00,SD38-02,T,ISL,,MF,0,,,,N,,,Chissioua,MTSAMBORO CHISSIOUA,Chissioua Mtsamboro,Chissioua Mtsamboro,1999-02-10
3,335465,416960,-12.7594444,45.0836111,-124534,450501,NL08,SD38-02,P,PPL,,MF,0,,,,N,,,,MTSAMGAMOUJI,Mtsamgamouji,Mtsamgamouji,1997-12-23
3,337093,418916,-12.8538889,45.0380556,-125114,450217,NL07,SD38-02,H,RF,,MF,0,,,,N,,,Récif,MTSANGA RECIF,Récif Mtsanga,Recif Mtsanga,1997-12-23
3,337158,419004,-12.8833333,45.1294444,-125300,450746,NL17,SD38-02,P,PPL,,MF,0,,,,N,,,,MTSANGACHEHI,Mtsangachéhi,Mtsangachehi,1997-12-23
3,335403,416881,-12.7080556,45.0477778,-124229,450252,NL09,SD38-02,P,PPL,,MF,0,,,,V,,,,MTSANGADOI,M'Tsangadoi,M'Tsangadoi,1997-12-23
3,335403,416880,-12.7080556,45.0477778,-124229,450252,NL09,SD38-02,P,PPL,,MF,0,,,,N,,,,MTSANGADOUA,Mtsangadoua,Mtsangadoua,1997-12-23
3,335343,416805,-12.6883333,45.1075,-124118,450627,NL19,SD38-02,P,PPL,,MF,0,,,,V,,,,MTSANGAMBOI,M'Tsangamboi,M'Tsangamboi,1997-12-23
3,335343,416800,-12.6883333,45.1075,-124118,450627,NL19,SD38-02,P,PPL,,MF,0,,,,N,,,,MTSANGAMBOUA,Mtsangamboua,Mtsangamboua,1997-12-23
3,335465,416961,-12.7594444,45.0836111,-124534,450501,NL08,SD38-02,P,PPL,,MF,0,,,,V,,,,MTSANGAMOUJI,M'Tsangamouji,M'Tsangamouji,1997-12-23
3,337123,418953,-12.8686111,45.1177778,-125207,450704,NL17,SD38-02,L,CST,,MF,0,,,,N,,,,MTSANYOUNYI,Mtsanyounyi,Mtsanyounyi,1997-12-23
1,337117,418945,-12.8622222,45.11,-125144,450636,NL17,SD38-02,T,BCH,,MF,0,,,,N,,,Mtsanga,MTSANYOUNYI MTSANGA,Mtsanga Mtsanyounyi,Mtsanga Mtsanyounyi,1997-12-23
3,336756,418494,-12.7877778,45.2183333,-124716,451306,NL28,SD38-02,P,PPLX,,MF,0,,,,N,,,,MTSAPERE,Mtsapéré,Mtsapere,1997-12-23
3,336728,418459,-12.7627778,45.1844444,-124546,451104,NL28,SD38-02,T,MT,,MF,0,,,,N,,,Mlima,MTSAPERE MLIMA,Mlima Mtsapéré,Mlima Mtsapere,1997-12-23
3,335337,416794,-12.6866667,45.1269444,-124112,450737,NL19,SD38-02,T,ISL,,MF,0,,,,N,,,Chissioua,MTSONGOMA CHISSIOUA,Chissioua Mtsongoma,Chissioua Mtsongoma,1997-12-23
3,337586,419445,-12.9152778,45.1827778,-125455,451058,NL17,SD38-02,P,PPL,,MF,0,,,,V,,,,MUSICALEPLAGE,Musicale Plage,Musicale Plage,1997-12-23
3,335390,416867,-12.6966667,45.0666667,-124148,450400,NL09,SD38-02,P,PPL,,MF,0,,,,V,,,,MZAMBORO,M'Zamboro,M'Zamboro,1997-12-23
3,334960,416367,-12.6413889,45.0275,-123829,450139,NM00,SD38-02,T,ISL,,MF,0,,,,V,,,,MZAMBORO ILE,Île M'Zamboro,Ile M'Zamboro,1999-02-10
3,337869,419769,-12.9255556,45.1011111,-125532,450604,NL17,SD38-02,P,PPL,,MF,0,,,,N,,,,MZOUAZIA,Mzouazia,Mzouazia,1997-12-23
3,337891,419792,-12.9408333,45.0841667,-125627,450503,NL06,SD38-02,H,BAY,,MF,0,,,,N,,,Baie,MZOUAZIA BAIEDE,Baie de Mzouazia,Baie de Mzouazia,1997-12-23
3,336727,418457,-12.76,45.2041667,-124536,451215,NL28,SD38-02,T,SPUR,,MF,0,,,,N,,,,NAMOHAKOU,Namohakou,Namohakou,1997-12-23
3,337090,418913,-12.8291667,45.0725,-124945,450421,NL08,SD38-02,H,RF,,MF,0,,,,N,,,Récif,NDRANE RECIF,Récif Ndrané,Recif Ndrane,1997-12-23
3,337887,419788,-12.9591667,45.0836111,-125733,450501,NL06,SD38-02,P,PPL,,MF,0,,,,N,,,,NGOUJA,Ngouja,Ngouja,1997-12-23
3,337890,419791,-12.9594444,45.0777778,-125734,450440,NL06,SD38-02,T,PT,,MF,0,,,,N,,,Rassi,NGOUJA RASSI,Rassi Ngouja,Rassi Ngouja,1997-12-23
3,337873,419774,-12.9080556,45.0852778,-125429,450507,NL07,SD38-02,T,PEN,,MF,0,,,,N,,,,NGOUJOUBOUNGOUDRANAVI,Ngoujou Boungoudranavi,Ngoujou Boungoudranavi,1997-12-23
3,337761,419651,-12.9497222,45.1569444,-125659,450925,NL16,SD38-02,T,HLL,,MF,0,,,,N,,,,NGOUMBILI,Ngoumbili,Ngoumbili,1997-12-23
1,337121,418951,-12.8658333,45.1283333,-125157,450742,NL17,SD38-02,T,MTS,,MF,0,,,,N,,,,NGOUNIMABOUNGANI,Ngouni Maboungani,Ngouni Maboungani,1997-12-23
3,336792,418533,-12.8036111,45.0980556,-124813,450553,NL18,SD38-02,T,BCH,,MF,0,,,,N,,,Mtsanga,NYAMBA MTSANGA,Mtsanga Nyamba,Mtsanga Nyamba,1997-12-23
3,337577,419435,-12.8905556,45.2008333,-125326,451203,NL27,SD38-02,P,PPL,,MF,0,,,,N,,,,NYAMBADAO,Nyambadao,Nyambadao,1997-12-23
3,335352,416814,-12.7069444,45.1205556,-124225,450714,NL19,SD38-02,P,PPL,,MF,0,,,,N,,,,NYAMBO,Nyambo,Nyambo,1997-12-23
1,337072,418895,-12.8347222,45.1563889,-125005,450923,NL18,SD38-02,P,PPL,,MF,0,,,,N,,,,ONGOJOU,Ongojou,Ongojou,1997-12-23
1,337073,418896,-12.835,45.1591667,-125006,450933,NL18,SD38-02,T,PASS,,MF,0,,,,N,,,Col,ONGOJOU COLD,Col d' Ongojou,Col d' Ongojou,1997-12-23
1,337075,418898,-12.8463889,45.1361111,-125047,450810,NL17,SD38-02,P,PPL,,MF,0,,,,N,,,,OUANGANI,Ouangani,Ouangani,1997-12-23
3,335787,417306,-12.7944444,45.1102778,-124740,450637,NL18,SD38-02,H,STM,,MF,0,,,,N,,,Mro,OUROVENI MROOUA,Mro oua Ouroveni,Mro oua Ouroveni,1997-12-23
3,337047,418866,-12.7963889,45.2736111,-124747,451625,NL28,SD38-02,P,PPL,,MF,0,,,,N,,,,PAMANDZI,Pamandzi,Pamandzi,1997-12-23
3,337048,418868,-12.8388889,45.2869444,-125020,451713,NL38,SD38-02,H,RF,,MF,0,,,,N,,,Récif,PAMANDZI RECIF,Récif Pamandzi,Recif Pamandzi,1997-12-23
3,336817,418566,-12.7713889,45.2916667,-124617,451730,NL38,SD38-02,T,BCH,,MF,0,,,,N,,,Plage,PAPANI PLAGEDE,Plage de Papani,Plage de Papani,1997-12-23
3,336765,418503,-12.7988889,45.2102778,-124756,451237,NL28,SD38-02,P,PPL,,MF,0,,,,N,,,,PASSAMAINTI,Passamaïnti,Passamainti,1997-12-23
3,337807,419702,-12.9897222,45.1427778,-125923,450834,NL16,SD38-02,T,HLL,,MF,0,,,,N,,,Tsiraka,PASSIBE TSIRAKA,Tsiraka Passi Bé,Tsiraka Passi Be,1997-12-23
3,337811,419706,-12.9833333,45.1244444,-125900,450728,NL16,SD38-02,P,PPL,,MF,0,,,,N,,,,PASSIKELI,Passi Kéli,Passi Keli,1997-12-23
3,337573,419431,-12.9072222,45.1858333,-125426,451109,NL27,SD38-02,H,STM,,MF,0,,,,N,,,Mro,PATSE MROOUA,Mro oua Patsé,Mro oua Patse,1997-12-23
3,337051,418871,-12.8363889,45.2441667,-125011,451439,NL28,SD38-02,T,ISL,,MF,0,,,,N,,,Chissioua,PENGOUA CHISSIOUA,Chissioua Pengoua,Chissioua Pengoua,1997-12-23
3,337566,419424,-12.9036111,45.1741667,-125413,451027,NL17,SD38-02,T,HLL,,MF,0,,,,N,,,,PENGOUALAJOU,Pengoualajou,Pengoualajou,1997-12-23
3,336815,418564,-12.7569444,45.2825,-124525,451657,NL38,SD38-02,T,PT,,MF,0,,,,N,,,,PETITETERRE,Petite-Terre,Petite-Terre,1997-12-23
3,337161,419007,-12.8894444,45.1383333,-125322,450818,NL17,SD38-02,P,PPL,,MF,0,,,,N,,,,POROANI,Poroani,Poroani,1997-12-23
3,337049,418869,-12.825,45.2505556,-124930,451502,NL28,SD38-02,T,ISL,,MF,0,,,,N,,,Chissioua,POUHOU CHISSIOUA,Chissioua Pouhou,Chissioua Pouhou,1997-12-23
3,337653,419517,-12.9363889,45.14,-125611,450824,NL16,SD38-02,P,PPL,,MF,0,,,,N,,,,RAMPECANNELLE,Rampe Cannelle,Rampe Cannelle,1997-12-23
3,337099,418922,-12.9361111,45.0569444,-125610,450325,NL06,SD38-02,H,RF,,MF,0,,,,N,,,Récif,RANI RECIF,Récif Rani,Recif Rani,1997-12-23
3,337101,418924,-12.9880556,45.0538889,-125917,450314,NL06,SD38-02,H,RF,,MF,0,,,,N,,,Récif,ROCCHI RECIF,Récif Rocchi,Recif Rocchi,1997-12-23
1,337081,418904,-12.8380556,45.1205556,-125017,450714,NL18,SD38-02,H,STM,,MF,0,,,,N,,,Mroni,ROUAKA MRONI,Mroni Rouaka,Mroni Rouaka,1997-12-23
3,337064,418885,-12.9827778,45.2138889,-125858,451250,NL26,SD38-02,T,ISL,,MF,0,,,,V,,,,SABLEBLANC ILOTDE,Îlot de Sable Blanc,Ilot de Sable Blanc,1999-02-10
3,337065,418886,-12.9841667,45.2197222,-125903,451311,NL26,SD38-02,H,RF,,MF,0,,,,N,,,Récif,SABLEBLANC RECIFDU,Récif du Sable Blanc,Recif du Sable Blanc,1997-12-23
1,337105,418929,-12.8480556,45.0975,-125053,450551,NL17,SD38-02,P,PPL,,MF,0,,,,N,,,,SADA,Sada,Sada,1997-12-23
1,337091,418914,-12.8438889,45.0869444,-125038,450513,NL08,SD38-02,T,ISL,,MF,0,,,,N,,,Chissioua,SADA CHISSIOUA,Chissioua Sada,Chissioua Sada,1997-12-23
3,337167,419014,-12.9019444,45.1419444,-125407,450831,NL17,SD38-02,H,STM,,MF,0,,,,N,,,Mroni,SAEVA MRONI,Mroni Saeva,Mroni Saeva,1997-12-23
1,334956,416362,-12.6397222,45.0197222,-123823,450111,NM00,SD38-02,T,BCH,,MF,0,,,,N,,,Mtsanga,SAFARI MTSANGA,Mtsanga Safari,Mtsanga Safari,1997-12-23
3,337175,419022,-12.8861111,45.2108333,-125310,451239,NL27,SD38-02,T,BCH,,MF,0,,,,N,,,Mtsanga,SAKOULI MTSANGA,Mtsanga Sakouli,Mtsanga Sakouli,1997-12-23
3,337150,418989,-12.8613889,45.1994444,-125141,451158,NL27,SD38-02,H,STM,,MF,0,,,,N,,,Mro,SALIMBE MROOUA,Mro oua Salim Bé,Mro oua Salim Be,1997-12-23
3,337575,419433,-12.9005556,45.1894444,-125402,451122,NL27,SD38-02,H,STM,,MF,0,,,,N,,,Mro,SANARO MROOUA,Mro oua Sanaro,Mro oua Sanaro,1997-12-23
3,337562,419420,-12.9144444,45.1516667,-125452,450906,NL17,SD38-02,H,STMI,,MF,0,,,,N,,,Mro,SANGA MROOUA,Mro oua Sanga,Mro oua Sanga,1997-12-23
3,337568,419426,-12.9136111,45.1697222,-125449,451011,NL17,SD38-02,T,HLL,,MF,0,,,,N,,,,SATRAGORI,Satra Gori,Satra Gori,1997-12-23
3,337782,419677,-12.9819444,45.1788889,-125855,451044,NL16,SD38-02,P,PPL,,MF,0,,,,N,,,,SAZILE,Sazilé,Sazile,1997-12-23
3,337768,419662,-12.9694444,45.1733333,-125810,451024,NL16,SD38-02,T,RDGE,,MF,0,,,,N,,,Mlima,SAZILE MLIMA,Mlima Sazilé,Mlima Sazile,1997-12-23
3,337771,419665,-12.9727778,45.1930556,-125822,451135,NL26,SD38-02,T,BCH,,MF,0,,,,N,,,Mtsanga,SAZILE MTSANGA,Mtsanga Sazilé,Mtsanga Sazile,1997-12-23
3,337063,418883,-12.9719444,45.2013889,-125819,451205,NL26,SD38-02,T,PT,,MF,0,,,,N,,,Pointe,SAZILE POINTE,Pointe Sazilé,Pointe Sazile,1997-12-23
3,337060,418880,-12.9580556,45.2183333,-125729,451306,NL26,SD38-02,H,RF,,MF,0,,,,N,,,Récif,SAZILE RECIF,Récif Sazilé,Recif Sazile,1997-12-23
3,337773,419667,-12.9736111,45.1972222,-125825,451150,NL26,SD38-02,T,HLL,,MF,0,,,,N,,,,SAZILEBE,Sazilé Bé,Sazile Be,1997-12-23
3,337062,418882,-12.9647222,45.2222222,-125753,451320,NL26,SD38-02,H,CHNM,,MF,0,,,,N,,,Passe,SAZILEDUMILIEU PASSE,Passe Sazilé du Milieu,Passe Sazile du Milieu,1997-12-23
3,337061,418881,-12.9530556,45.2166667,-125711,451300,NL26,SD38-02,H,CHNM,,MF,0,,,,N,,,Passe,SAZILEDUNORD PASSE,Passe Sazilé du Nord,Passe Sazile du Nord,1997-12-23
3,337066,418888,-13.0016667,45.2322222,-130006,451356,NL26,SD38-02,H,CHNM,,MF,0,,,,N,,,Passe,SAZILEDUSUD PASSE,Passe Sazilé du Sud,Passe Sazile du Sud,1997-12-23
3,337655,419520,-12.9308333,45.1463889,-125551,450847,NL17,SD38-02,H,STM,,MF,0,,,,N,,,Mro,SIRNALE MROOUA,Mro oua Sirnalé,Mro oua Sirnale,1997-12-23
3,336801,418546,-12.8197222,45.1036111,-124911,450613,NL18,SD38-02,P,PPL,,MF,0,,,,N,,,,SOHOA,Sohoa,Sohoa,1997-12-23
3,336793,418534,-12.8144444,45.1036111,-124852,450613,NL18,SD38-02,T,BCH,,MF,0,,,,N,,,Plage,SOHOA PLAGEDE,Plage de Sohoa,Plage de Sohoa,1997-12-23
3,336803,418548,-12.8186111,45.1061111,-124907,450622,NL18,SD38-02,P,PPLX,,MF,0,,,,N,,,,SOHOAKAVANI,Sohoa Kavani,Sohoa Kavani,1997-12-23
3,336802,418547,-12.8211111,45.1033333,-124916,450612,NL18,SD38-02,P,PPLX,,MF,0,,,,N,,,,SOHOAKELI,Sohoa Kéli,Sohoa Keli,1997-12-23
3,335474,416971,-12.7580556,45.1005556,-124529,450602,NL18,SD38-02,T,GRGE,,MF,0,,,,N,,,,SOULO,Soulo,Soulo,1997-12-23
3,335488,416986,-12.7755556,45.0894444,-124632,450522,NL08,SD38-02,H,BAY,,MF,0,,,,N,,,Baie,SOULOU BAIEDE,Baie de Soulou,Baie de Soulou,1997-12-23
3,335528,417033,-12.7622222,45.1027778,-124544,450610,NL18,SD38-02,R,RDJCT,,MF,0,,,,N,,,Carrefour,SOULOU CARREFOURDE,Carrefour de Soulou,Carrefour de Soulou,1997-12-23
3,335486,416984,-12.7777778,45.0991667,-124640,450557,NL18,SD38-02,T,BCH,,MF,0,,,,N,,,Plage,SOULOU PLAGEDE,Plage de Soulou,Plage de Soulou,1997-12-23
3,337067,418889,-13.0063889,45.2386111,-130023,451419,NL26,SD38-02,H,RF,,MF,0,,,,N,,,Récif,SUD RECIFDU,Récif du Sud,Recif du Sud,1997-12-23
3,337102,418925,-13.0061111,45.0091667,-130022,450033,NL06,SD38-02,H,RF,,MF,0,,,,N,,,Récif,SUD RECIFDU,Récif du Sud,Recif du Sud,1997-12-23
1,337117,418946,-12.8622222,45.11,-125144,450636,NL17,SD38-02,T,BCH,,MF,0,,,,V,,,,TAHITIPLAGE,Tahiti Plage,Tahiti Plage,1997-12-23
3,335430,416916,-12.7469444,45.0713889,-124449,450417,NL09,SD38-02,V,FRST,,MF,0,,,,N,,,,TANAMBAO,Tanambao,Tanambao,1997-12-23
3,337803,419698,-12.9738889,45.1538889,-125826,450914,NL16,SD38-02,H,STMI,,MF,0,,,,N,,,Mro,TANAMUAO MROOUA,Mro oua Tanamuao,Mro oua Tanamuao,1997-12-23
3,335449,416939,-12.7561111,45.0666667,-124522,450400,NL08,SD38-02,P,PPL,,MF,0,,,,N,,,,TANARAKI,Tanaraki,Tanaraki,1997-12-23
3,335450,416940,-12.7530556,45.0697222,-124511,450411,NL09,SD38-02,T,BCH,,MF,0,,,,N,,,Mtsanga,TANARAKI MTSANGA,Mtsanga Tanaraki,Mtsanga Tanaraki,1997-12-23
3,337133,418969,-12.8680556,45.1497222,-125205,450859,NL17,SD38-02,L,AREA,,MF,0,,,,N,,,,TCHAOUREMBO,Tchaourembo,Tchaourembo,1997-12-23
3,337122,418952,-12.8644444,45.1366667,-125152,450812,NL17,SD38-02,L,RESF,,MF,0,,,,N,,,Réserve Forestière,TCHAOUREMBO RESERVEFORESTIEREDE,Réserve Forestière de Tchaourembo,Reserve Forestiere de Tchaourembo,1997-12-23
3,337579,419437,-12.8805556,45.1955556,-125250,451144,NL27,SD38-02,T,HLL,,MF,0,,,,N,,,,TRAMBATSINI,Trambatsini,Trambatsini,1997-12-23
3,337120,418949,-12.855,45.1225,-125118,450721,NL17,SD38-02,T,SLP,,MF,0,,,,N,,,,TRELENI,Tréléni,Treleni,1997-12-23
3,335970,417565,-12.7308333,45.1961111,-124351,451146,NL29,SD38-02,P,PPL,,MF,0,,,,N,,,,TREVANI,Trévani,Trevani,1997-12-23
3,335965,417560,-12.7280556,45.1925,-124341,451133,NL29,SD38-02,T,BCH,,MF,0,,,,N,,,Plage,TREVANI PLAGEDE,Plage de Trévani,Plage de Trevani,1997-12-23
3,335862,417438,-12.7283333,45.1675,-124342,451003,NL19,SD38-02,V,FRST,,MF,0,,,,N,,,,TRIRINI,Tririni,Tririni,1997-12-23
3,336766,418506,-12.8041667,45.2036111,-124815,451213,NL28,SD38-02,P,PPL,,MF,0,,,,V,,,,TROTRONDJEOU,Trotrondjéou,Trotrondjeou,1997-12-23
3,337068,418890,-12.8338889,45.1725,-125002,451021,NL18,SD38-02,P,PPL,,MF,0,,,,N,,,,TSARARANO,Tsararano,Tsararano,1997-12-23
1,337069,418891,-12.8341667,45.175,-125003,451030,NL18,SD38-02,R,RDJCT,,MF,0,,,,N,,,Carrefour,TSARARANO CARREFOURDE,Carrefour de Tsararano,Carrefour de Tsararano,1997-12-23
3,337859,419758,-12.9372222,45.1352778,-125614,450807,NL16,SD38-02,P,PPL,,MF,0,,,,N,,,,TSIMKOURA,Tsimkoura,Tsimkoura,1997-12-23
3,335783,417302,-12.7872222,45.1027778,-124714,450610,NL18,SD38-02,P,PPL,,MF,0,,,,N,,,,TSINGONI,Tsingoni,Tsingoni,1997-12-23
3,335785,417304,-12.7916667,45.0969444,-124730,450549,NL18,SD38-02,H,BAY,,MF,0,,,,N,,,Baie,TSINGONI BAIEDE,Baie de Tsingoni,Baie de Tsingoni,1997-12-23
3,335397,416874,-12.7033333,45.06,-124212,450336,NL09,SD38-02,V,FRST,,MF,0,,,,N,,,,TSOHA,Tsoha,Tsoha,1997-12-23
3,335396,416873,-12.6983333,45.0530556,-124154,450311,NL09,SD38-02,T,BCH,,MF,0,,,,N,,,Mtsanga,TSOHA MTSANGA,Mtsanga Tsoha,Mtsanga Tsoha,1997-12-23
3,337064,418884,-12.9827778,45.2138889,-125858,451250,NL26,SD38-02,T,ISL,,MF,0,,,,N,,,Mtsanga,TSOHOLE MTSANGA,Mtsanga Tsoholé,Mtsanga Tsohole,1999-02-10
3,336766,418504,-12.8041667,45.2036111,-124815,451213,NL28,SD38-02,P,PPL,,MF,0,,,,N,,,,TSOUNDZOUb,Tsoundzou 1,Tsoundzou 1,1997-12-23
3,336777,418517,-12.8133333,45.1966667,-124848,451148,NL28,SD38-02,P,PPL,,MF,0,,,,N,,,,TSOUNDZOUc,Tsoundzou 2,Tsoundzou 2,1997-12-23
3,336781,418521,-12.7883333,45.1772222,-124718,451038,NL18,SD38-02,P,PPL,,MF,0,,,,N,,,,VAHIBENI,Vahibéni,Vahibeni,1997-12-23
3,336786,418526,-12.7819444,45.1705556,-124655,451014,NL18,SD38-02,P,PPLQ,,MF,0,,,,N,,,,VAHIBENI,Vahibéni,Vahibeni,1997-12-23
3,336807,418554,-12.7705556,45.2577778,-124614,451528,NL28,SD38-02,T,ISL,,MF,0,,,,N,,,,VATOU,Vatou,Vatou,1997-12-23
3,336807,418555,-12.7705556,45.2577778,-124614,451528,NL28,SD38-02,T,ISL,,MF,0,,,,V,,,,VATOU ILE,Île Vatou,Ile Vatou,1997-12-23
3,337854,419753,-12.9630556,45.1386111,-125747,450819,NL16,SD38-02,T,MT,,MF,0,,,,N,,,,VATOUNKARIDI,Vatounkaridi,Vatounkaridi,1997-12-23
3,335805,417328,-12.7236111,45.1436111,-124325,450837,NL19,SD38-02,T,ISL,,MF,0,,,,N,,,Île,VERTE ILE,Île Verte,Ile Verte,1997-12-23
3,337131,418967,-12.8591667,45.1638889,-125133,450950,NL17,SD38-02,L,RESF,,MF,0,,,,N,,,Réserve Forestière,VOUNDZE RESERVEFORESTIEREDE,Réserve Forestière de Voundzé,Reserve Forestiere de Voundze,1997-12-23
3,336691,418419,-12.7558333,45.2486111,-124521,451455,NL28,SD38-02,T,ISL,,MF,0,,,,N,,,,ZISSIOUAZINE,Zissioua Ziné,Zissioua Zine,1997-12-23
